country,state,city,station,last_update,latitude,longitude,pollutant_id,pollutant_min,pollutant_max,pollutant_avg
India,Bihar,Begusarai,"Lohiyanagar, Begusarai - BSPCB",06-11-2025 21:00:00,25.42742023,86.13886079,SO2,36,47,41
India,Bihar,Begusarai,"Lohiyanagar, Begusarai - BSPCB",06-11-2025 21:00:00,25.42742023,86.13886079,OZONE,8,57,25
India,Bihar,Bettiah,"Kamalnath Nagar, Bettiah - BSPCB",06-11-2025 21:00:00,26.80365,84.51954,CO,47,104,71
India,Bihar,Bhagalpur,"DM Office_Kachari Chowk, Bhagalpur - BSPCB",06-11-2025 21:00:00,25.251013,86.989001,PM2.5,NA,NA,NA
India,Bihar,Bhagalpur,"DM Office_Kachari Chowk, Bhagalpur - BSPCB",06-11-2025 21:00:00,25.251013,86.989001,PM10,NA,NA,NA
India,Bihar,Bhagalpur,"Mayaganj, Bhagalpur - BSPCB",06-11-2025 21:00:00,25.265194,87.012947,PM2.5,57,100,78
India,Bihar,Bhagalpur,"Mayaganj, Bhagalpur - BSPCB",06-11-2025 21:00:00,25.265194,87.012947,CO,16,72,39
India,Bihar,Bihar Sharif,"D M Colony, Bihar Sharif - BSPCB",06-11-2025 21:00:00,25.204762,85.51496,PM2.5,75,220,119
India,Bihar,Bihar Sharif,"D M Colony, Bihar Sharif - BSPCB",06-11-2025 21:00:00,25.204762,85.51496,NO2,9,10,10
India,Andhra_Pradesh,Tirumala,"Toll Gate, Tirumala - APPCB",06-11-2025 21:00:00,13.67,79.35,CO,24,45,34
India,Andhra_Pradesh,Vijayawada,"HB Colony, Vijayawada - APPCB",06-11-2025 21:00:00,16.536107,80.594233,OZONE,6,34,25
India,Andhra_Pradesh,Vijayawada,"Rajiv Gandhi Park, Vijayawada - APPCB",06-11-2025 21:00:00,16.509717,80.612222,NO2,12,63,45
India,Andhra_Pradesh,Vijayawada,"Rajiv Gandhi Park, Vijayawada - APPCB",06-11-2025 21:00:00,16.509717,80.612222,SO2,10,19,14
India,Andhra_Pradesh,Vijayawada,"Rajiv Gandhi Park, Vijayawada - APPCB",06-11-2025 21:00:00,16.509717,80.612222,CO,27,38,30
India,Andhra_Pradesh,Visakhapatnam,"GVM Corporation, Visakhapatnam - APPCB",06-11-2025 21:00:00,17.72,83.3,PM10,84,181,126
India,Andhra_Pradesh,Visakhapatnam,"GVM Corporation, Visakhapatnam - APPCB",06-11-2025 21:00:00,17.72,83.3,NO2,17,142,54
India,Andhra_Pradesh,Visakhapatnam,"GVM Corporation, Visakhapatnam - APPCB",06-11-2025 21:00:00,17.72,83.3,SO2,5,20,12
India,Bihar,Araria,"Kharahiya Basti, Araria - BSPCB",06-11-2025 21:00:00,26.146529,87.454184,PM2.5,87,308,165
India,Bihar,Araria,"Kharahiya Basti, Araria - BSPCB",06-11-2025 21:00:00,26.146529,87.454184,SO2,10,20,17
India,Bihar,Araria,"Kharahiya Basti, Araria - BSPCB",06-11-2025 21:00:00,26.146529,87.454184,OZONE,10,11,10
India,Bihar,Arrah,"New DM Office, Arrah - BSPCB",06-11-2025 21:00:00,25.5626095,84.663264,PM2.5,31,59,41
India,Bihar,Aurangabad,"Gurdeo Nagar, Aurangabad - BSPCB",06-11-2025 21:00:00,24.75746,84.366208,NH3,1,2,1
India,Bihar,Aurangabad,"Gurdeo Nagar, Aurangabad - BSPCB",06-11-2025 21:00:00,24.75746,84.366208,CO,86,103,100
India,Bihar,Begusarai,"Lohiyanagar, Begusarai - BSPCB",06-11-2025 21:00:00,25.42742023,86.13886079,PM10,22,140,98
India,Bihar,Hajipur,"Industrial Area, Hajipur - BSPCB",06-11-2025 21:00:00,25.697189,85.2459,PM10,32,114,84
India,Bihar,Hajipur,"Industrial Area, Hajipur - BSPCB",06-11-2025 21:00:00,25.697189,85.2459,NO2,11,25,17
India,Bihar,Hajipur,"Industrial Area, Hajipur - BSPCB",06-11-2025 21:00:00,25.697189,85.2459,CO,16,48,22
India,Bihar,Katihar,"Mirchaibari, Katihar - BSPCB",06-11-2025 21:00:00,25.560083,87.553265,NO2,1,4,2
India,Bihar,Katihar,"Mirchaibari, Katihar - BSPCB",06-11-2025 21:00:00,25.560083,87.553265,NH3,1,1,1
India,Bihar,Katihar,"Mirchaibari, Katihar - BSPCB",06-11-2025 21:00:00,25.560083,87.553265,CO,66,84,73
India,Bihar,Kishanganj,"SDM Office_Khagra, Kishanganj - BSPCB",06-11-2025 21:00:00,26.0881305,87.93840336,NO2,7,8,7
India,Bihar,Buxar,"Charitra Van, Buxar - BSPCB",06-11-2025 21:00:00,25.56752,83.966379,NO2,9,10,9
India,Bihar,Buxar,"Charitra Van, Buxar - BSPCB",06-11-2025 21:00:00,25.56752,83.966379,OZONE,1,91,26
India,Bihar,Chhapra,"Darshan Nagar, Chhapra - BSPCB",06-11-2025 21:00:00,25.7808257,84.7446768,PM10,12,34,24
India,Bihar,Gaya,"Kareemganj, Gaya - BSPCB",06-11-2025 21:00:00,24.792403,84.992416,PM2.5,70,304,139
India,Bihar,Gaya,"Kareemganj, Gaya - BSPCB",06-11-2025 21:00:00,24.792403,84.992416,SO2,15,17,16
India,Assam,Guwahati,"Railway Colony, Guwahati - PCBA",06-11-2025 21:00:00,26.181742,91.78063,PM10,7,99,41
India,Assam,Guwahati,"Railway Colony, Guwahati - PCBA",06-11-2025 21:00:00,26.181742,91.78063,NO2,3,4,3
India,Assam,Guwahati,"Railway Colony, Guwahati - PCBA",06-11-2025 21:00:00,26.181742,91.78063,SO2,30,32,30
India,Assam,Nalbari,"Bata Chowk, Nalbari - PCBA",06-11-2025 21:00:00,26.446912,91.439057,OZONE,18,19,19
India,Assam,Silchar,"Tarapur, Silchar - PCBA",06-11-2025 21:00:00,24.82827,92.79525,PM2.5,23,31,26
India,Andhra_Pradesh,Anantapur,"Gulzarpet, Anantapur - APPCB",06-11-2025 21:00:00,14.675886,77.593027,SO2,15,15,15
India,Andhra_Pradesh,Anantapur,"Gulzarpet, Anantapur - APPCB",06-11-2025 21:00:00,14.675886,77.593027,CO,13,38,34
India,Andhra_Pradesh,Anantapur,"Gulzarpet, Anantapur - APPCB",06-11-2025 21:00:00,14.675886,77.593027,OZONE,29,56,49
India,Andhra_Pradesh,Chittoor,"Gangineni Cheruvu, Chittoor - APPCB",06-11-2025 21:00:00,13.20488,79.097889,PM2.5,49,87,67
India,Andhra_Pradesh,Kadapa,"Yerramukkapalli, Kadapa - APPCB",06-11-2025 21:00:00,14.465052,78.824187,PM2.5,51,61,55
India,Assam,Byrnihat,"Central Academy for SFS, Byrnihat - PCBA",06-11-2025 21:00:00,26.071318,91.87488,CO,23,76,55
India,Assam,Guwahati,"IITG, Guwahati - PCBA",06-11-2025 21:00:00,26.2028636,91.70046436,SO2,23,27,25
India,Assam,Guwahati,"IITG, Guwahati - PCBA",06-11-2025 21:00:00,26.2028636,91.70046436,OZONE,1,17,8
India,Assam,Guwahati,"LGBI Airport, Guwahati - PCBA",06-11-2025 21:00:00,26.10887,91.589544,PM2.5,29,79,59
India,Andhra_Pradesh,Amaravati,"Secretariat, Amaravati - APPCB",06-11-2025 21:00:00,16.5150833,80.5181667,PM2.5,44,95,67
India,Andhra_Pradesh,Amaravati,"Secretariat, Amaravati - APPCB",06-11-2025 21:00:00,16.5150833,80.5181667,NO2,20,70,42
India,Bihar,Buxar,"Charitra Van, Buxar - BSPCB",06-11-2025 21:00:00,25.56752,83.966379,PM2.5,53,137,92
India,Chhattisgarh,Raipur,"AIIMS, Raipur - CECB",06-11-2025 21:00:00,21.258815,81.578979,NH3,4,5,5
India,Chhattisgarh,Raipur,"AIIMS, Raipur - CECB",06-11-2025 21:00:00,21.258815,81.578979,SO2,11,16,13
India,Chhattisgarh,Raipur,"Bhatagaon New ISBT, Raipur - CECB",06-11-2025 21:00:00,21.219665,81.630094,PM10,43,87,60
India,Chhattisgarh,Raipur,"Krishak Nagar, Raipur - CECB",06-11-2025 21:00:00,21.237755,81.705301,PM2.5,NA,NA,NA
India,Chhattisgarh,Raipur,"Krishak Nagar, Raipur - CECB",06-11-2025 21:00:00,21.237755,81.705301,NH3,NA,NA,NA
India,Chhattisgarh,Raipur,"Siltara Phase-II, Raipur - CECB",06-11-2025 21:00:00,21.371751,81.664929,PM2.5,NA,NA,NA
India,Chhattisgarh,Raipur,"Siltara Phase-II, Raipur - CECB",06-11-2025 21:00:00,21.371751,81.664929,NO2,NA,NA,NA
India,Chhattisgarh,Raipur,"Siltara Phase-II, Raipur - CECB",06-11-2025 21:00:00,21.371751,81.664929,NH3,NA,NA,NA
India,Chhattisgarh,Tumidih,"OP Jindal Industrial Park, Tumidih - CECB",06-11-2025 21:00:00,22.06631475,83.33820077,NH3,1,2,1
India,Chhattisgarh,Korba,"Rampur, Korba - CECB",06-11-2025 21:00:00,22.368195,82.746431,PM2.5,53,75,66
India,Chhattisgarh,Korba,"Rampur, Korba - CECB",06-11-2025 21:00:00,22.368195,82.746431,NO2,4,19,10
India,Chhattisgarh,Korba,"Rampur, Korba - CECB",06-11-2025 21:00:00,22.368195,82.746431,SO2,7,11,9
India,Chhattisgarh,Korba,"Urja Nagar, Korba - CECB",06-11-2025 21:00:00,22.348441,82.549611,PM2.5,64,69,64
India,Chhattisgarh,Korba,"Urja Nagar, Korba - CECB",06-11-2025 21:00:00,22.348441,82.549611,PM10,68,73,68
India,Chhattisgarh,Kunjemura,"OP Jindal School, Kunjemura - CECB",06-11-2025 21:00:00,22.12665,83.483212,NO2,3,3,3
India,Chhattisgarh,Kunjemura,"OP Jindal School, Kunjemura - CECB",06-11-2025 21:00:00,22.12665,83.483212,CO,10,26,19
India,Chhattisgarh,Milupara,"Govt. Higher Secondary School, Milupara - CECB",06-11-2025 21:00:00,22.1910172,83.5197009,OZONE,12,118,69
India,Bihar,Siwan,"Chitragupta Nagar, Siwan - BSPCB",06-11-2025 21:00:00,26.2271665,84.3570427,PM10,24,102,68
India,Bihar,Siwan,"Chitragupta Nagar, Siwan - BSPCB",06-11-2025 21:00:00,26.2271665,84.3570427,NH3,1,3,1
India,Bihar,Siwan,"Chitragupta Nagar, Siwan - BSPCB",06-11-2025 21:00:00,26.2271665,84.3570427,SO2,5,6,6
India,Chandigarh,Chandigarh,"Sector 22, Chandigarh - CPCC",06-11-2025 21:00:00,30.735567,76.775714,PM2.5,73,328,168
India,Chandigarh,Chandigarh,"Sector 22, Chandigarh - CPCC",06-11-2025 21:00:00,30.735567,76.775714,NO2,11,62,23
India,Chandigarh,Chandigarh,"Sector-25, Chandigarh - CPCC",06-11-2025 21:00:00,30.751462,76.762879,PM10,91,147,115
India,Chandigarh,Chandigarh,"Sector-53, Chandigarh - CPCC",06-11-2025 21:00:00,30.719859,76.738637,SO2,NA,NA,NA
India,Chhattisgarh,Bhilai,"32Bungalows, Bhilai - CECB",06-11-2025 21:00:00,21.194815,81.31477,PM2.5,14,25,19
India,Chhattisgarh,Bhilai,"32Bungalows, Bhilai - CECB",06-11-2025 21:00:00,21.194815,81.31477,CO,12,73,28
India,Chhattisgarh,Bhilai,"Hathkhoj, Bhilai - CECB",06-11-2025 21:00:00,21.224231,81.40835,SO2,12,36,19
India,Chhattisgarh,Bhilai,"Hathkhoj, Bhilai - CECB",06-11-2025 21:00:00,21.224231,81.40835,CO,11,46,19
India,Chhattisgarh,Bilaspur,"Mangala, Bilaspur - NTPC",06-11-2025 21:00:00,22.08815,82.13737,SO2,9,19,14
India,Bihar,Purnia,"Mariam Nagar, Purnia - BSPCB",06-11-2025 21:00:00,25.366336,87.117468,OZONE,11,48,26
India,Bihar,Rajgir,"Dangi Tola, Rajgir - BSPCB",06-11-2025 21:00:00,25.0328,85.41948,PM2.5,47,130,86
India,Bihar,Rajgir,"Dangi Tola, Rajgir - BSPCB",06-11-2025 21:00:00,25.0328,85.41948,PM10,48,103,79
India,Bihar,Rajgir,"Dangi Tola, Rajgir - BSPCB",06-11-2025 21:00:00,25.0328,85.41948,NH3,6,7,6
India,Bihar,Rajgir,"Dangi Tola, Rajgir - BSPCB",06-11-2025 21:00:00,25.0328,85.41948,SO2,19,24,21
India,Bihar,Samastipur,"DM Office_Kasipur, Samastipur - BSPCB",06-11-2025 21:00:00,25.859655,85.77944,OZONE,8,8,8
India,Bihar,Kishanganj,"SDM Office_Khagra, Kishanganj - BSPCB",06-11-2025 21:00:00,26.0881305,87.93840336,OZONE,10,18,13
India,Bihar,Manguraha,"Forest Rest House, Manguraha - BSPCB",06-11-2025 21:00:00,27.308328,84.531742,CO,30,62,39
India,Bihar,Motihari,"Gandak Colony, Motihari - BSPCB",06-11-2025 21:00:00,26.63086,84.90051,PM2.5,21,24,23
India,Bihar,Motihari,"Gandak Colony, Motihari - BSPCB",06-11-2025 21:00:00,26.63086,84.90051,NH3,3,3,3
India,Bihar,Patna,"DRM Office Danapur, Patna - BSPCB",06-11-2025 21:00:00,25.586562,85.043586,OZONE,10,41,27
India,Bihar,Patna,"Govt. High School Shikarpur, Patna - BSPCB",06-11-2025 21:00:00,25.592539,85.227158,PM2.5,53,70,60
India,Bihar,Patna,"Govt. High School Shikarpur, Patna - BSPCB",06-11-2025 21:00:00,25.592539,85.227158,SO2,9,11,10
India,Bihar,Patna,"Govt. High School Shikarpur, Patna - BSPCB",06-11-2025 21:00:00,25.592539,85.227158,OZONE,9,13,11
India,Delhi,Delhi,"Alipur, Delhi - DPCC",06-11-2025 21:00:00,28.815329,77.15301,NO2,34,77,56
India,Delhi,Delhi,"Anand Vihar, Delhi - DPCC",06-11-2025 21:00:00,28.647622,77.315809,PM10,147,413,246
India,Delhi,Delhi,"Anand Vihar, Delhi - DPCC",06-11-2025 21:00:00,28.647622,77.315809,OZONE,21,68,47
India,Bihar,Patna,"Muradpur, Patna - BSPCB",06-11-2025 21:00:00,25.619651,85.147382,PM2.5,70,240,140
India,Bihar,Patna,"Muradpur, Patna - BSPCB",06-11-2025 21:00:00,25.619651,85.147382,NO2,3,3,3
India,Bihar,Patna,"Muradpur, Patna - BSPCB",06-11-2025 21:00:00,25.619651,85.147382,OZONE,4,39,29
India,Delhi,Delhi,"Mundka, Delhi - DPCC",06-11-2025 21:00:00,28.684678,77.076574,OZONE,3,75,53
India,Delhi,Delhi,"NSIT Dwarka, Delhi - CPCB",06-11-2025 21:00:00,28.60909,77.0325413,PM2.5,41,436,256
India,Delhi,Delhi,"NSIT Dwarka, Delhi - CPCB",06-11-2025 21:00:00,28.60909,77.0325413,NH3,6,14,9
India,Delhi,Delhi,"NSIT Dwarka, Delhi - CPCB",06-11-2025 21:00:00,28.60909,77.0325413,OZONE,10,87,49
India,Delhi,Delhi,"Najafgarh, Delhi - DPCC",06-11-2025 21:00:00,28.570173,76.933762,PM2.5,80,500,326
India,Delhi,Delhi,"Najafgarh, Delhi - DPCC",06-11-2025 21:00:00,28.570173,76.933762,NO2,35,130,109
India,Delhi,Delhi,"Najafgarh, Delhi - DPCC",06-11-2025 21:00:00,28.570173,76.933762,NH3,4,7,5
India,Delhi,Delhi,"Najafgarh, Delhi - DPCC",06-11-2025 21:00:00,28.570173,76.933762,OZONE,7,83,22
India,Delhi,Delhi,"Narela, Delhi - DPCC",06-11-2025 21:00:00,28.822836,77.101981,PM10,128,451,301
India,Delhi,Delhi,"Narela, Delhi - DPCC",06-11-2025 21:00:00,28.822836,77.101981,NO2,11,52,27
India,Delhi,Delhi,"Nehru Nagar, Delhi - DPCC",06-11-2025 21:00:00,28.56789,77.250515,PM10,131,455,247
India,Delhi,Delhi,"Nehru Nagar, Delhi - DPCC",06-11-2025 21:00:00,28.56789,77.250515,NO2,26,100,46
India,Delhi,Delhi,"Nehru Nagar, Delhi - DPCC",06-11-2025 21:00:00,28.56789,77.250515,CO,46,104,60
India,Delhi,Delhi,"Pusa, Delhi - DPCC",06-11-2025 21:00:00,28.639652,77.146275,NH3,3,13,10
India,Delhi,Delhi,"Pusa, Delhi - DPCC",06-11-2025 21:00:00,28.639652,77.146275,CO,59,107,82
India,Delhi,Delhi,"Pusa, Delhi - IMD",06-11-2025 21:00:00,28.63611,77.173332,PM2.5,79,483,302
India,Delhi,Delhi,"Pusa, Delhi - IMD",06-11-2025 21:00:00,28.63611,77.173332,PM10,102,421,231
India,Delhi,Delhi,"R K Puram, Delhi - DPCC",06-11-2025 21:00:00,28.563262,77.186937,NO2,26,131,69
India,Delhi,Delhi,"Rohini, Delhi - DPCC",06-11-2025 21:00:00,28.732528,77.11992,NH3,6,11,8
India,Delhi,Delhi,"Rohini, Delhi - DPCC",06-11-2025 21:00:00,28.732528,77.11992,SO2,3,27,6
India,Delhi,Delhi,"Shadipur, Delhi - CPCB",06-11-2025 21:00:00,28.6514781,77.1473105,PM10,145,373,225
India,Delhi,Delhi,"Sirifort, Delhi - CPCB",06-11-2025 21:00:00,28.5504249,77.2159377,NO2,43,60,55
India,Delhi,Delhi,"Sonia Vihar, Delhi - DPCC",06-11-2025 21:00:00,28.710508,77.249485,PM2.5,83,492,311
India,Delhi,Delhi,"Sonia Vihar, Delhi - DPCC",06-11-2025 21:00:00,28.710508,77.249485,NO2,20,96,40
India,Delhi,Delhi,"Sonia Vihar, Delhi - DPCC",06-11-2025 21:00:00,28.710508,77.249485,CO,42,107,66
India,Delhi,Delhi,"Sri Aurobindo Marg, Delhi - DPCC",06-11-2025 21:00:00,28.531346,77.190156,PM10,116,454,241
India,Delhi,Delhi,"Sri Aurobindo Marg, Delhi - DPCC",06-11-2025 21:00:00,28.531346,77.190156,NO2,17,55,32
India,Delhi,Delhi,"Sri Aurobindo Marg, Delhi - DPCC",06-11-2025 21:00:00,28.531346,77.190156,SO2,5,11,7
India,Delhi,Delhi,"Wazirpur, Delhi - DPCC",06-11-2025 21:00:00,28.699793,77.165453,NO2,45,113,62
India,Delhi,Delhi,"Wazirpur, Delhi - DPCC",06-11-2025 21:00:00,28.699793,77.165453,CO,80,110,97
India,Gujarat,Ahmedabad,"Chandkheda, Ahmedabad - IITM",06-11-2025 21:00:00,23.107969,72.574648,NO2,8,103,41
India,Gujarat,Ahmedabad,"Chandkheda, Ahmedabad - IITM",06-11-2025 21:00:00,23.107969,72.574648,NH3,3,24,10
India,Gujarat,Ahmedabad,"Gyaspur, Ahmedabad - IITM",06-11-2025 21:00:00,22.977134,72.553024,PM10,68,266,138
India,Gujarat,Ahmedabad,"Maninagar, Ahmedabad - GPCB",06-11-2025 21:00:00,23.002657,72.591912,OZONE,5,93,46
India,Delhi,Delhi,"North Campus, DU, Delhi - IMD",06-11-2025 21:00:00,28.6573814,77.1585447,PM10,121,408,238
India,Delhi,Delhi,"North Campus, DU, Delhi - IMD",06-11-2025 21:00:00,28.6573814,77.1585447,OZONE,36,316,220
India,Delhi,Delhi,"Okhla Phase-2, Delhi - DPCC",06-11-2025 21:00:00,28.530785,77.271255,SO2,17,28,21
India,Delhi,Delhi,"Okhla Phase-2, Delhi - DPCC",06-11-2025 21:00:00,28.530785,77.271255,OZONE,12,160,97
India,Delhi,Delhi,"Pusa, Delhi - DPCC",06-11-2025 21:00:00,28.639652,77.146275,PM2.5,110,500,337
India,Delhi,Delhi,"Pusa, Delhi - DPCC",06-11-2025 21:00:00,28.639652,77.146275,NO2,74,163,109
India,Delhi,Delhi,"Chandni Chowk, Delhi - IITM",06-11-2025 21:00:00,28.656756,77.227234,CO,36,94,55
India,Delhi,Delhi,"DTU, Delhi - CPCB",06-11-2025 21:00:00,28.7500499,77.1112615,OZONE,9,21,15
India,Delhi,Delhi,"Dwarka-Sector 8, Delhi - DPCC ",06-11-2025 21:00:00,28.5710274,77.0719006,SO2,3,28,14
India,Delhi,Delhi,"IGI Airport (T3), Delhi - IMD",06-11-2025 21:00:00,28.5627763,77.1180053,PM10,137,454,292
India,Delhi,Delhi,"Ashok Vihar, Delhi - DPCC",06-11-2025 21:00:00,28.695381,77.181665,OZONE,15,110,77
India,Delhi,Delhi,"Bawana, Delhi - DPCC",06-11-2025 21:00:00,28.7762,77.051074,SO2,5,34,13
India,Delhi,Delhi,"Burari Crossing, Delhi - IMD",06-11-2025 21:00:00,28.7256504,77.2011573,CO,8,72,21
India,Delhi,Delhi,"CRRI Mathura Road, Delhi - IMD",06-11-2025 21:00:00,28.5512005,77.2735737,PM10,143,432,261
India,Delhi,Delhi,"IHBAS, Dilshad Garden, Delhi - CPCB",06-11-2025 21:00:00,28.6811736,77.3025234,PM2.5,135,259,160
India,Delhi,Delhi,"Jahangirpuri, Delhi - DPCC",06-11-2025 21:00:00,28.73282,77.170633,NH3,6,8,7
India,Delhi,Delhi,"Jawaharlal Nehru Stadium, Delhi - DPCC",06-11-2025 21:00:00,28.58028,77.233829,PM10,111,410,209
India,Delhi,Delhi,"Major Dhyan Chand National Stadium, Delhi - DPCC",06-11-2025 21:00:00,28.611281,77.237738,OZONE,3,152,90
India,Delhi,Delhi,"Mundka, Delhi - DPCC",06-11-2025 21:00:00,28.684678,77.076574,NH3,6,17,12
India,Delhi,Delhi,"Mundka, Delhi - DPCC",06-11-2025 21:00:00,28.684678,77.076574,CO,28,106,42
India,Gujarat,Ahmedabad,"Raikhad, Ahmedabad - IITM",06-11-2025 21:00:00,23.020509,72.579261,OZONE,1,58,36
India,Gujarat,Ahmedabad,"Rakhial, Ahmedabad - IITM",06-11-2025 21:00:00,23.016834,72.625775,PM2.5,37,312,149
India,Gujarat,Ahmedabad,"Rakhial, Ahmedabad - IITM",06-11-2025 21:00:00,23.016834,72.625775,NO2,1,259,61
India,Gujarat,Ahmedabad,"Rakhial, Ahmedabad - IITM",06-11-2025 21:00:00,23.016834,72.625775,CO,26,114,54
India,Gujarat,Ahmedabad,"SAC ISRO Bopal, Ahmedabad - IITM",06-11-2025 21:00:00,23.041137,72.456691,PM2.5,12,165,44
India,Gujarat,Ahmedabad,"SAC ISRO Bopal, Ahmedabad - IITM",06-11-2025 21:00:00,23.041137,72.456691,NO2,18,24,21
India,Gujarat,Ahmedabad,"SAC ISRO Bopal, Ahmedabad - IITM",06-11-2025 21:00:00,23.041137,72.456691,NH3,2,3,3
India,Gujarat,Ahmedabad,"SAC ISRO Bopal, Ahmedabad - IITM",06-11-2025 21:00:00,23.041137,72.456691,SO2,2,3,2
India,Gujarat,Ahmedabad,"SAC ISRO Satellite, Ahmedabad - IITM",06-11-2025 21:00:00,23.023389,72.515201,SO2,3,21,7
India,Gujarat,Ahmedabad,"SVPI Airport Hansol, Ahmedabad - IITM",06-11-2025 21:00:00,23.076793,72.627874,PM2.5,4,304,132
India,Haryana,Ambala,"Patti Mehar, Ambala - HSPCB",06-11-2025 21:00:00,30.379589,76.778328,CO,98,101,100
India,Haryana,Bahadurgarh,"Arya Nagar, Bahadurgarh - HSPCB",06-11-2025 21:00:00,28.6701,76.9254,PM2.5,NA,NA,NA
India,Haryana,Bahadurgarh,"Arya Nagar, Bahadurgarh - HSPCB",06-11-2025 21:00:00,28.6701,76.9254,OZONE,15,20,17
India,Haryana,Ballabgarh,"Nathu Colony, Ballabgarh - HSPCB",06-11-2025 21:00:00,28.3419248,77.319699,NH3,3,3,3
India,Haryana,Bhiwani,"H.B. Colony, Bhiwani - HSPCB",06-11-2025 21:00:00,28.806223,76.141105,CO,8,14,12
India,Haryana,Bhiwani,"H.B. Colony, Bhiwani - HSPCB",06-11-2025 21:00:00,28.806223,76.141105,OZONE,10,20,13
India,Haryana,Charkhi Dadri,"Mini Secretariat, Charkhi Dadri - HSPCB",06-11-2025 21:00:00,28.593883,76.270653,PM10,114,411,243
India,Haryana,Charkhi Dadri,"Mini Secretariat, Charkhi Dadri - HSPCB",06-11-2025 21:00:00,28.593883,76.270653,NO2,9,24,15
India,Haryana,Fatehabad,"Huda Sector, Fatehabad - HSPCB",06-11-2025 21:00:00,29.503664,75.467934,SO2,NA,NA,NA
India,Haryana,Gurugram,"NISE Gwal Pahari, Gurugram - IMD",06-11-2025 21:00:00,28.422681,77.148944,PM10,122,438,264
India,Haryana,Gurugram,"NISE Gwal Pahari, Gurugram - IMD",06-11-2025 21:00:00,28.422681,77.148944,CO,16,66,18
India,Haryana,Gurugram,"Sector-51, Gurugram - HSPCB",06-11-2025 21:00:00,28.4227,77.0667,PM10,132,449,295
India,Haryana,Gurugram,"Sector-51, Gurugram - HSPCB",06-11-2025 21:00:00,28.4227,77.0667,NH3,8,14,10
India,Haryana,Gurugram,"Sector-51, Gurugram - HSPCB",06-11-2025 21:00:00,28.4227,77.0667,OZONE,4,26,15
India,Haryana,Gurugram,"Vikas Sadan, Gurugram - HSPCB",06-11-2025 21:00:00,28.4501238,77.0263051,OZONE,8,55,41
India,Haryana,Hisar,"Urban Estate-II, Hisar - HSPCB",06-11-2025 21:00:00,29.14056,75.744941,NO2,11,12,11
India,Gujarat,Ahmedabad,"SVPI Airport Hansol, Ahmedabad - IITM",06-11-2025 21:00:00,23.076793,72.627874,OZONE,1,39,23
India,Gujarat,Ankleshwar,"GIDC, Ankleshwar - GPCB",06-11-2025 21:00:00,21.613267,73.010555,PM10,89,172,120
India,Gujarat,Ankleshwar,"GIDC, Ankleshwar - GPCB",06-11-2025 21:00:00,21.613267,73.010555,SO2,26,34,31
India,Gujarat,Gandhinagar,"GIFT City, Gandhinagar - IITM",06-11-2025 21:00:00,23.163798,72.677768,PM10,128,367,205
India,Gujarat,Gandhinagar,"IIPHG Lekawada, Gandhinagar - IITM",06-11-2025 21:00:00,23.243639,72.68994,NH3,1,2,1
India,Gujarat,Gandhinagar,"IIPHG Lekawada, Gandhinagar - IITM",06-11-2025 21:00:00,23.243639,72.68994,OZONE,5,33,22
India,Gujarat,Gandhinagar,"Sector-10, Gandhinagar - GPCB",06-11-2025 21:00:00,23.221714,72.654328,PM2.5,60,341,188
India,Haryana,Panchgaon,"Amity University, Panchgaon - IITM",06-11-2025 21:00:00,28.3153,76.9143,PM2.5,43,137,78
India,Haryana,Panchgaon,"Amity University, Panchgaon - IITM",06-11-2025 21:00:00,28.3153,76.9143,NH3,6,16,11
India,Haryana,Panchgaon,"Amity University, Panchgaon - IITM",06-11-2025 21:00:00,28.3153,76.9143,CO,42,102,58
India,Haryana,Panchgaon,"Amity University, Panchgaon - IITM",06-11-2025 21:00:00,28.3153,76.9143,OZONE,2,86,62
India,Haryana,Panchkula,"Sector-6, Panchkula - HSPCB ",06-11-2025 21:00:00,30.7057778,76.8531805555555,NO2,24,26,25
India,Haryana,Panchkula,"Sector-6, Panchkula - HSPCB ",06-11-2025 21:00:00,30.7057778,76.8531805555555,CO,20,28,23
India,Haryana,Panipat,"Sector-18, Panipat - HSPCB",06-11-2025 21:00:00,29.432304,76.972765,PM10,33,435,186
India,Gujarat,Gandhinagar,"Sector-10, Gandhinagar - GPCB",06-11-2025 21:00:00,23.221714,72.654328,CO,22,36,28
India,Gujarat,Vapi,"Phase-1 GIDC, Vapi - GPCB",06-11-2025 21:00:00,20.362421,72.918013,PM2.5,66,325,182
India,Gujarat,Vapi,"Phase-1 GIDC, Vapi - GPCB",06-11-2025 21:00:00,20.362421,72.918013,OZONE,2,2,2
India,Gujarat,Vatva,"Phase-4 GIDC, Vatva - GPCB",06-11-2025 21:00:00,22.969611,72.6435,PM2.5,63,287,158
India,Haryana,Ambala,"Patti Mehar, Ambala - HSPCB",06-11-2025 21:00:00,30.379589,76.778328,PM2.5,81,315,209
India,Haryana,Jind,"Police Lines, Jind - HSPCB",06-11-2025 21:00:00,29.307814,76.337619,OZONE,1,4,2
India,Haryana,Kaithal,"Rishi Nagar, Kaithal - HSPCB",06-11-2025 21:00:00,29.8006,76.4155,NO2,29,33,31
India,Haryana,Karnal,"Sector-12, Karnal - HSPCB",06-11-2025 21:00:00,29.6953,77.0027,SO2,13,17,15
India,Haryana,Kurukshetra,"Sector-7, Kurukshetra - HSPCB",06-11-2025 21:00:00,29.966942,76.875879,NO2,16,22,19
India,Haryana,Dharuhera,"Municipal Corporation Office, Dharuhera -  HSPCB",06-11-2025 21:00:00,28.2068,76.7997,NO2,14,51,38
India,Haryana,Dharuhera,"Municipal Corporation Office, Dharuhera -  HSPCB",06-11-2025 21:00:00,28.2068,76.7997,CO,28,56,33
India,Haryana,Faridabad,"New Industrial Town, Faridabad - HSPCB",06-11-2025 21:00:00,28.39072,77.30059,PM2.5,222,239,229
India,Haryana,Faridabad,"New Industrial Town, Faridabad - HSPCB",06-11-2025 21:00:00,28.39072,77.30059,PM10,163,171,166
India,Haryana,Mandikhera,"General Hospital, Mandikhera - HSPCB",06-11-2025 21:00:00,27.9002,76.9938,OZONE,22,31,27
India,Haryana,Palwal,"Shyam Nagar, Palwal - HSPCB",06-11-2025 21:00:00,28.1485564,77.3320667,PM2.5,98,308,197
India,Haryana,Palwal,"Shyam Nagar, Palwal - HSPCB",06-11-2025 21:00:00,28.1485564,77.3320667,CO,28,28,28
India,Haryana,Rohtak,"MD University, Rohtak - HSPCB",06-11-2025 21:00:00,28.52123,76.37138,NO2,4,7,6
India,Haryana,Sonipat,"Murthal, Sonipat - HSPCB",06-11-2025 21:00:00,29.0272,77.0621,PM2.5,98,375,251
India,Haryana,Yamuna Nagar,"Gobind Pura, Yamuna Nagar - HSPCB",06-11-2025 21:00:00,30.1480566,77.2893471,NH3,10,10,10
India,Haryana,Yamuna Nagar,"Gobind Pura, Yamuna Nagar - HSPCB",06-11-2025 21:00:00,30.1480566,77.2893471,CO,38,96,59
India,Haryana,Yamuna Nagar,"Gobind Pura, Yamuna Nagar - HSPCB",06-11-2025 21:00:00,30.1480566,77.2893471,OZONE,38,38,38
India,Himachal Pradesh,Baddi,"HIMUDA Complex Phase-1, Baddi - HPPCB",06-11-2025 21:00:00,30.943887,76.801991,PM2.5,68,360,255
India,Himachal Pradesh,Baddi,"HIMUDA Complex Phase-1, Baddi - HPPCB",06-11-2025 21:00:00,30.943887,76.801991,PM10,117,334,185
India,Karnataka,Bengaluru,"Hombegowda Nagar, Bengaluru - KSPCB",06-11-2025 21:00:00,12.938539,77.5901,NH3,2,3,2
India,Karnataka,Bengaluru,"Jayanagar 5th Block, Bengaluru - KSPCB",06-11-2025 21:00:00,12.920984,77.584908,PM2.5,25,68,45
India,Karnataka,Bengaluru,"Jigani, Bengaluru - KSPCB",06-11-2025 21:00:00,12.7816279,77.6299145,PM10,52,114,78
India,Karnataka,Bengaluru,"Kasturi Nagar, Bengaluru - KSPCB",06-11-2025 21:00:00,13.003872,77.664217,PM2.5,44,52,47
India,Karnataka,Bengaluru,"Kasturi Nagar, Bengaluru - KSPCB",06-11-2025 21:00:00,13.003872,77.664217,PM10,55,62,58
India,Karnataka,Bengaluru,"Kasturi Nagar, Bengaluru - KSPCB",06-11-2025 21:00:00,13.003872,77.664217,NO2,29,30,29
India,Karnataka,Bengaluru,"Kasturi Nagar, Bengaluru - KSPCB",06-11-2025 21:00:00,13.003872,77.664217,NH3,2,3,2
India,Karnataka,Bengaluru,"Peenya, Bengaluru - CPCB",06-11-2025 21:00:00,13.0270199,77.494094,PM2.5,18,44,28
India,Karnataka,Koppal,"Diwator Nagar, Koppal - KSPCB",06-11-2025 21:00:00,15.34763,76.181767,CO,14,76,65
India,Karnataka,Madikeri,"Stuart Hill, Madikeri - KSPCB",06-11-2025 21:00:00,12.415911,75.73505,OZONE,4,8,5
India,Karnataka,Mangalore,"Kadri, Mangalore - KSPCB",06-11-2025 21:00:00,12.88925,74.853,SO2,14,14,14
India,Karnataka,Mysuru,"Hebbal 1st Stage, Mysuru - KSPCB",06-11-2025 21:00:00,12.21041,76.37376,PM2.5,7,25,16
India,Karnataka,Mysuru,"Hebbal 1st Stage, Mysuru - KSPCB",06-11-2025 21:00:00,12.21041,76.37376,NO2,9,35,21
India,Karnataka,Shivamogga,"Vinoba Nagara, Shivamogga - KSPCB",06-11-2025 21:00:00,13.94,75.555917,PM2.5,17,20,18
India,Karnataka,Shivamogga,"Vinoba Nagara, Shivamogga - KSPCB",06-11-2025 21:00:00,13.94,75.555917,SO2,4,4,4
India,Karnataka,Bidar,"Naubad, Bidar - KSPCB",06-11-2025 21:00:00,17.930306,77.482194,NO2,NA,NA,NA
India,Karnataka,Bidar,"Naubad, Bidar - KSPCB",06-11-2025 21:00:00,17.930306,77.482194,CO,12,30,18
India,Karnataka,Chamarajanagar,"Urban, Chamarajanagar - KSPCB",06-11-2025 21:00:00,11.55358,76.55521,PM2.5,18,45,26
India,Karnataka,Chamarajanagar,"Urban, Chamarajanagar - KSPCB",06-11-2025 21:00:00,11.55358,76.55521,NO2,14,36,23
India,Karnataka,Chamarajanagar,"Urban, Chamarajanagar - KSPCB",06-11-2025 21:00:00,11.55358,76.55521,CO,14,119,22
India,Karnataka,Chamarajanagar,"Urban, Chamarajanagar - KSPCB",06-11-2025 21:00:00,11.55358,76.55521,OZONE,13,38,33
India,Karnataka,Dharwad,"Kalabhavan, Dharwad - KSPCB",06-11-2025 21:00:00,15.459706,75.008381,PM10,68,103,80
India,Karnataka,Gadag,"Panchal Nagar, Gadag - KSPCB",06-11-2025 21:00:00,15.411456,75.638133,PM10,21,42,31
India,Karnataka,Bengaluru,"BTM Layout, Bengaluru - CPCB",06-11-2025 21:00:00,12.9135218,77.5950804,OZONE,22,22,22
India,Karnataka,Bengaluru,"BWSSB Kadabesanahalli, Bengaluru - CPCB",06-11-2025 21:00:00,12.9352049,77.6814488,SO2,NA,NA,NA
India,Karnataka,Bengaluru,"BWSSB Kadabesanahalli, Bengaluru - CPCB",06-11-2025 21:00:00,12.9352049,77.6814488,CO,17,128,39
India,Karnataka,Bengaluru,"City Railway Station, Bengaluru - KSPCB",06-11-2025 21:00:00,12.9756843,77.5660749,CO,86,88,87
India,Karnataka,Bengaluru,"Hombegowda Nagar, Bengaluru - KSPCB",06-11-2025 21:00:00,12.938539,77.5901,PM2.5,13,47,29
India,Karnataka,Haveri,"Ashwini Nagar, Haveri - KSPCB",06-11-2025 21:00:00,14.7918,75.3896,PM10,45,52,47
India,Karnataka,Haveri,"Ashwini Nagar, Haveri - KSPCB",06-11-2025 21:00:00,14.7918,75.3896,NO2,45,50,47
India,Karnataka,Haveri,"Ashwini Nagar, Haveri - KSPCB",06-11-2025 21:00:00,14.7918,75.3896,OZONE,NA,NA,NA
India,Karnataka,Kalaburagi,"Mahatma Basaveswar Colony, Kalaburgi - KSPCB",06-11-2025 21:00:00,17.336318,76.847397,PM10,27,76,46
India,Karnataka,Kalaburagi,"Mahatma Basaveswar Colony, Kalaburgi - KSPCB",06-11-2025 21:00:00,17.336318,76.847397,CO,32,74,42
India,Jharkhand,Dhanbad,"Sardar Patel Nagar, Dhanbad - JSPCB",06-11-2025 21:00:00,23.80569,86.44268,OZONE,1,39,13
India,Jharkhand,Jorapokhar,"Tata Stadium, Jorapokhar - JSPCB",06-11-2025 21:00:00,23.707909,86.41467,PM10,NA,NA,NA
India,Karnataka,Bengaluru,"Shivapura_Peenya, Bengaluru - KSPCB",06-11-2025 21:00:00,13.0246342,77.5080115,OZONE,19,20,20
India,Karnataka,Bengaluru,"Silk Board, Bengaluru - KSPCB",06-11-2025 21:00:00,12.917348,77.622813,PM10,25,98,59
India,Karnataka,Bengaluru,"Peenya, Bengaluru - CPCB",06-11-2025 21:00:00,13.0270199,77.494094,CO,23,48,40
India,Karnataka,Bengaluru,"Peenya, Bengaluru - CPCB",06-11-2025 21:00:00,13.0270199,77.494094,OZONE,19,20,19
India,Madhya Pradesh,Gwalior,"City Center, Gwalior - MPPCB",06-11-2025 21:00:00,26.203442,78.193251,NH3,2,5,3
India,Madhya Pradesh,Gwalior,"City Center, Gwalior - MPPCB",06-11-2025 21:00:00,26.203442,78.193251,SO2,4,28,17
India,Madhya Pradesh,Gwalior,"City Center, Gwalior - MPPCB",06-11-2025 21:00:00,26.203442,78.193251,CO,23,114,68
India,Madhya Pradesh,Gwalior,"Deen Dayal Nagar, Gwalior - MPPCB",06-11-2025 21:00:00,26.259242,78.216432,PM10,68,364,153
India,Madhya Pradesh,Gwalior,"Deen Dayal Nagar, Gwalior - MPPCB",06-11-2025 21:00:00,26.259242,78.216432,NH3,4,9,6
India,Madhya Pradesh,Gwalior,"Deen Dayal Nagar, Gwalior - MPPCB",06-11-2025 21:00:00,26.259242,78.216432,CO,15,100,58
India,Madhya Pradesh,Gwalior,"Maharaj Bada, Gwalior - MPPCB",06-11-2025 21:00:00,26.200388,78.147714,PM10,65,245,142
India,Madhya Pradesh,Indore,"Airport Area, Indore - IMC",06-11-2025 21:00:00,22.7289,75.8076,NO2,2,3,2
India,Madhya Pradesh,Indore,"Airport Area, Indore - IMC",06-11-2025 21:00:00,22.7289,75.8076,SO2,20,20,20
India,Madhya Pradesh,Indore,"Chhoti Gwaltoli, Indore - MPPCB",06-11-2025 21:00:00,22.431,75.5213,NH3,1,7,3
India,Kerala,Kollam,"Polayathode, Kollam - Kerala PCB",06-11-2025 21:00:00,8.8787,76.6073,CO,14,18,16
India,Kerala,Kollam,"Polayathode, Kollam - Kerala PCB",06-11-2025 21:00:00,8.8787,76.6073,OZONE,29,35,34
India,Kerala,Thiruvananthapuram,"Kariavattom, Thiruvananthapuram - Kerala PCB",06-11-2025 21:00:00,8.5637,76.8865,OZONE,36,37,36
India,Kerala,Thiruvananthapuram,"Plammoodu, Thiruvananthapuram - Kerala PCB",06-11-2025 21:00:00,8.5149093,76.9435879,PM10,18,56,30
India,Kerala,Thiruvananthapuram,"Plammoodu, Thiruvananthapuram - Kerala PCB",06-11-2025 21:00:00,8.5149093,76.9435879,NO2,29,69,46
India,Kerala,Thiruvananthapuram,"Plammoodu, Thiruvananthapuram - Kerala PCB",06-11-2025 21:00:00,8.5149093,76.9435879,NH3,6,7,6
India,Kerala,Thrissur,"Corporation Ground, Thrissur - Kerala PCB",06-11-2025 21:00:00,10.5324,76.2159,NO2,7,9,8
India,Madhya Pradesh,Pithampur,"Sector-2 Industrial Area, Pithampur - MPPCB",06-11-2025 21:00:00,22.624758,75.675238,PM10,100,174,139
India,Madhya Pradesh,Pithampur,"Sector-2 Industrial Area, Pithampur - MPPCB",06-11-2025 21:00:00,22.624758,75.675238,NO2,24,276,44
India,Madhya Pradesh,Pithampur,"Sector-2 Industrial Area, Pithampur - MPPCB",06-11-2025 21:00:00,22.624758,75.675238,SO2,13,30,22
India,Madhya Pradesh,Pithampur,"Sector-2 Industrial Area, Pithampur - MPPCB",06-11-2025 21:00:00,22.624758,75.675238,OZONE,31,61,54
India,Madhya Pradesh,Sagar,"Civil Lines, Sagar - MPPCB",06-11-2025 21:00:00,23.838586,78.759431,NO2,12,47,20
India,Madhya Pradesh,Singrauli,"Suryakiran Bhawan NCL, Singrauli - MPPCB",06-11-2025 21:00:00,24.10897,82.64558,NO2,21,22,21
India,Karnataka,Udupi,"Brahmagiri, Udupi - KSPCB",06-11-2025 21:00:00,13.34194444,74.74694444,PM10,14,34,22
India,Karnataka,Udupi,"Brahmagiri, Udupi - KSPCB",06-11-2025 21:00:00,13.34194444,74.74694444,SO2,8,8,8
India,Karnataka,Yadgir,"Collector Office, Yadgir - KSPCB",06-11-2025 21:00:00,16.7602,77.1428,PM2.5,14,75,36
India,Kerala,Kannur,"Thavakkara, Kannur - Kerala PCB",06-11-2025 21:00:00,11.875,75.3732,NO2,13,15,14
India,Kerala,Kollam,"Polayathode, Kollam - Kerala PCB",06-11-2025 21:00:00,8.8787,76.6073,PM10,48,101,66
India,Madhya Pradesh,Jabalpur,"Marhatal, Jabalpur - MPPCB",06-11-2025 21:00:00,23.168606,79.932247,SO2,14,21,17
India,Madhya Pradesh,Jabalpur,"Suhagi, Jabalpur - JMC",06-11-2025 21:00:00,23.218135,79.95777,PM2.5,37,217,111
India,Madhya Pradesh,Jabalpur,"Suhagi, Jabalpur - JMC",06-11-2025 21:00:00,23.218135,79.95777,NH3,2,3,2
India,Madhya Pradesh,Katni,"Gole Bazar, Katni - MPPCB",06-11-2025 21:00:00,23.50016,80.23284,SO2,4,54,21
India,Madhya Pradesh,Maihar,"Sahilara, Maihar - KJS Cements",06-11-2025 21:00:00,24.2613009,80.7231783,PM2.5,10,81,34
India,Maharashtra,Amravati,"Shivneri Colony, Amravati - MPCB",06-11-2025 21:00:00,20.9402359,77.7895248,NO2,10,25,16
India,Maharashtra,Amravati,"Shivneri Colony, Amravati - MPCB",06-11-2025 21:00:00,20.9402359,77.7895248,NH3,NA,NA,NA
India,Maharashtra,Amravati,"Shivneri Colony, Amravati - MPCB",06-11-2025 21:00:00,20.9402359,77.7895248,OZONE,4,76,55
India,Maharashtra,Amravati,"Shri Shivaji Science College, Amravati - MPCB",06-11-2025 21:00:00,20.939198,77.765701,PM10,60,95,77
India,Maharashtra,Amravati,"Shri Shivaji Science College, Amravati - MPCB",06-11-2025 21:00:00,20.939198,77.765701,CO,27,91,36
India,Madhya Pradesh,Indore,"Regional Park, Indore - IMC",06-11-2025 21:00:00,22.678,75.8559,OZONE,11,24,15
India,Madhya Pradesh,Indore,"Residency Area, Indore - IMC",06-11-2025 21:00:00,22.7084,75.8815,PM10,58,152,84
India,Madhya Pradesh,Indore,"Residency Area, Indore - IMC",06-11-2025 21:00:00,22.7084,75.8815,SO2,23,35,27
India,Madhya Pradesh,Jabalpur,"Marhatal, Jabalpur - MPPCB",06-11-2025 21:00:00,23.168606,79.932247,PM2.5,46,305,163
India,Madhya Pradesh,Bhopal,"Paryavaran Parisar, Bhopal - MPPCB",06-11-2025 21:00:00,23.210494,77.425409,NO2,14,83,35
India,Madhya Pradesh,Bhopal,"T T Nagar, Bhopal - MPPCB",06-11-2025 21:00:00,23.233584,77.400574,NH3,5,5,5
India,Madhya Pradesh,Bhopal,"T T Nagar, Bhopal - MPPCB",06-11-2025 21:00:00,23.233584,77.400574,OZONE,45,143,118
India,Madhya Pradesh,Dewas,"Bhopal Chauraha, Dewas - MPPCB",06-11-2025 21:00:00,22.9682591,76.064118,OZONE,22,27,23
India,Madhya Pradesh,Mandideep,"Sector-D Industrial Area, Mandideep - MPPCB",06-11-2025 21:00:00,23.10844,77.511428,NO2,20,128,68
India,Maharashtra,Boisar,"Khaira, Boisar - MPCB",06-11-2025 21:00:00,19.786089,72.757971,PM10,106,233,164
India,Maharashtra,Boisar,"Khaira, Boisar - MPCB",06-11-2025 21:00:00,19.786089,72.757971,CO,10,55,29
India,Maharashtra,Chandrapur,"Chauhan Colony, Chandrapur - MPCB",06-11-2025 21:00:00,19.9629,79.298714,NO2,30,34,32
India,Maharashtra,Chandrapur,"Chauhan Colony, Chandrapur - MPCB",06-11-2025 21:00:00,19.9629,79.298714,SO2,29,29,29
India,Maharashtra,Chandrapur,"Chauhan Colony, Chandrapur - MPCB",06-11-2025 21:00:00,19.9629,79.298714,OZONE,19,19,19
India,Maharashtra,Chandrapur,"MIDC Khutala, Chandrapur - MPCB",06-11-2025 21:00:00,19.9775302,79.2337086,PM2.5,21,86,43
India,Maharashtra,Chandrapur,"MIDC Khutala, Chandrapur - MPCB",06-11-2025 21:00:00,19.9775302,79.2337086,NH3,2,5,3
India,Maharashtra,Chandrapur,"MIDC Khutala, Chandrapur - MPCB",06-11-2025 21:00:00,19.9775302,79.2337086,SO2,8,9,9
India,Maharashtra,Dhule,"Deopur, Dhule - MPCB",06-11-2025 21:00:00,20.918946,74.776388,PM2.5,29,100,63
India,Maharashtra,Dhule,"Deopur, Dhule - MPCB",06-11-2025 21:00:00,20.918946,74.776388,SO2,7,14,11
India,Maharashtra,Mumbai,"Chakala-Andheri East, Mumbai - IITM",06-11-2025 21:00:00,19.11074,72.86084,CO,2,34,15
India,Maharashtra,Mumbai,"Chembur, Mumbai - MPCB",06-11-2025 21:00:00,19.0364585,72.8954371,NH3,2,3,2
India,Maharashtra,Mumbai,"Chhatrapati Shivaji Intl. Airport (T2), Mumbai - MPCB",06-11-2025 21:00:00,19.10078,72.87462,NO2,17,20,18
India,Maharashtra,Mumbai,"Chhatrapati Shivaji Intl. Airport (T2), Mumbai - MPCB",06-11-2025 21:00:00,19.10078,72.87462,OZONE,7,8,7
India,Maharashtra,Mumbai,"Colaba, Mumbai - MPCB",06-11-2025 21:00:00,18.91,72.82,SO2,NA,NA,NA
India,Maharashtra,Mumbai,"Deonar, Mumbai - IITM",06-11-2025 21:00:00,19.04946,72.923,PM2.5,34,105,64
India,Maharashtra,Mumbai,"Deonar, Mumbai - IITM",06-11-2025 21:00:00,19.04946,72.923,PM10,125,183,158
India,Maharashtra,Mumbai,"Deonar, Mumbai - IITM",06-11-2025 21:00:00,19.04946,72.923,SO2,6,10,8
India,Maharashtra,Mumbai,"Ghatkopar, Mumbai - BMC",06-11-2025 21:00:00,19.083694,72.920967,NH3,3,7,5
India,Maharashtra,Mumbai,"Ghatkopar, Mumbai - BMC",06-11-2025 21:00:00,19.083694,72.920967,SO2,3,9,5
India,Maharashtra,Mumbai,"Ghatkopar, Mumbai - BMC",06-11-2025 21:00:00,19.083694,72.920967,OZONE,6,98,86
India,Maharashtra,Mumbai,"Kandivali East, Mumbai - MPCB",06-11-2025 21:00:00,19.2058,72.8682,SO2,NA,NA,NA
India,Maharashtra,Mumbai,"Kandivali West, Mumbai - BMC",06-11-2025 21:00:00,19.215859,72.831718,PM10,51,89,70
India,Maharashtra,Mumbai,"Kandivali West, Mumbai - BMC",06-11-2025 21:00:00,19.215859,72.831718,SO2,1,5,2
India,Maharashtra,Mumbai,"Kandivali West, Mumbai - BMC",06-11-2025 21:00:00,19.215859,72.831718,OZONE,2,57,49
India,Maharashtra,Mumbai,"Kherwadi_Bandra East, Mumbai - MPCB",06-11-2025 21:00:00,19.0632143,72.8456324,PM10,70,138,107
India,Maharashtra,Mumbai,"Kherwadi_Bandra East, Mumbai - MPCB",06-11-2025 21:00:00,19.0632143,72.8456324,NO2,1,30,13
India,Maharashtra,Amravati,"Shri Shivaji Science College, Amravati - MPCB",06-11-2025 21:00:00,20.939198,77.765701,OZONE,4,74,57
India,Maharashtra,Aurangabad,"MIDC Chilkalthana, Aurangabad - MPCB",06-11-2025 21:00:00,19.87562,75.38731,PM10,10,110,63
India,Maharashtra,Aurangabad,"Rachnakar Colony, Aurangabad - MPCB",06-11-2025 21:00:00,19.863756,75.321188,PM10,21,98,70
India,Maharashtra,Aurangabad,"Rachnakar Colony, Aurangabad - MPCB",06-11-2025 21:00:00,19.863756,75.321188,SO2,10,27,19
India,Maharashtra,Badlapur,"Katrap, Badlapur - MPCB",06-11-2025 21:00:00,19.16485,73.23409,PM2.5,29,88,58
India,Maharashtra,Badlapur,"Katrap, Badlapur - MPCB",06-11-2025 21:00:00,19.16485,73.23409,SO2,5,17,12
India,Maharashtra,Badlapur,"Katrap, Badlapur - MPCB",06-11-2025 21:00:00,19.16485,73.23409,CO,13,40,18
India,Maharashtra,Latur,"Sawe Wadi, Latur - MPCB",06-11-2025 21:00:00,18.39963,76.57452,SO2,3,5,4
India,Maharashtra,Mahad,"Kamble Tarf Birwadi, Mahad - MPCB",06-11-2025 21:00:00,18.1023399,73.4783687,PM2.5,32,37,34
India,Maharashtra,Malegaon,"Mahesh Nagar, Malegaon - MPCB",06-11-2025 21:00:00,20.555712,74.529236,PM10,50,116,77
India,Maharashtra,Malegaon,"Mahesh Nagar, Malegaon - MPCB",06-11-2025 21:00:00,20.555712,74.529236,NO2,8,66,20
India,Maharashtra,Mumbai,"Bandra Kurla Complex, Mumbai - IITM",06-11-2025 21:00:00,19.053536,72.84643,NO2,33,55,44
India,Maharashtra,Mumbai,"Bandra Kurla Complex, Mumbai - IITM",06-11-2025 21:00:00,19.053536,72.84643,NH3,5,69,44
India,Maharashtra,Mumbai,"Khindipada-Bhandup West, Mumbai - IITM",06-11-2025 21:00:00,19.1653323,72.922099,SO2,4,17,13
India,Maharashtra,Mumbai,"Kurla, Mumbai - MPCB",06-11-2025 21:00:00,19.0863,72.8888,CO,6,16,12
India,Maharashtra,Mumbai,"Malad West, Mumbai - IITM",06-11-2025 21:00:00,19.19709,72.82204,PM10,92,162,124
India,Maharashtra,Mumbai,"Mazgaon, Mumbai - IITM",06-11-2025 21:00:00,18.96702,72.84214,PM2.5,57,141,91
India,Maharashtra,Mumbai,"Mazgaon, Mumbai - IITM",06-11-2025 21:00:00,18.96702,72.84214,NH3,11,23,16
India,Maharashtra,Mumbai,"Mindspace-Malad West, Mumbai - MPCB",06-11-2025 21:00:00,19.1878657,72.8304069,SO2,15,16,15
India,Maharashtra,Mumbai,"Navy Nagar-Colaba, Mumbai - IITM",06-11-2025 21:00:00,18.897756,72.81332,SO2,NA,NA,NA
India,Maharashtra,Mumbai,"Powai, Mumbai - MPCB",06-11-2025 21:00:00,19.1375,72.915056,SO2,NA,NA,NA
India,Maharashtra,Mumbai,"Sewri, Mumbai - BMC",06-11-2025 21:00:00,19.000084,72.85673,PM2.5,NA,NA,NA
India,Maharashtra,Jalgaon,"Prabhat Colony, Jalgaon - MPCB",06-11-2025 21:00:00,21.001264,75.565602,OZONE,10,75,47
India,Maharashtra,Jalna,"Old MIDC, Jalna - MPCB",06-11-2025 21:00:00,19.854616,75.905894,OZONE,15,153,71
India,Maharashtra,Kolhapur,"Sinchan Bhavan, Kolhapur - MPCB",06-11-2025 21:00:00,16.7143745,74.2426398,NH3,NA,NA,NA
India,Maharashtra,Mumbai,"Byculla, Mumbai - BMC",06-11-2025 21:00:00,18.9767,72.838,NO2,18,59,37
India,Maharashtra,Mumbai,"Chakala-Andheri East, Mumbai - IITM",06-11-2025 21:00:00,19.11074,72.86084,PM2.5,31,103,66
India,Maharashtra,Nashik,"Gangapur Road, Nashik - MPCB",06-11-2025 21:00:00,20.0073285,73.7762427,PM2.5,28,86,43
India,Maharashtra,Nashik,"Gangapur Road, Nashik - MPCB",06-11-2025 21:00:00,20.0073285,73.7762427,NO2,7,7,7
India,Maharashtra,Nashik,"Gangapur Road, Nashik - MPCB",06-11-2025 21:00:00,20.0073285,73.7762427,NH3,4,4,4
India,Maharashtra,Nashik,"Gangapur Road, Nashik - MPCB",06-11-2025 21:00:00,20.0073285,73.7762427,SO2,4,9,6
India,Maharashtra,Nashik,"Gangapur Road, Nashik - MPCB",06-11-2025 21:00:00,20.0073285,73.7762427,OZONE,10,37,20
India,Maharashtra,Nashik,"MIDC Ambad, Nashik - MPCB",06-11-2025 21:00:00,19.95022,73.73148,NH3,3,5,4
India,Maharashtra,Nashik,"Pandav Nagari, Nashik - MPCB",06-11-2025 21:00:00,19.9591346,73.7788008,PM10,17,120,73
India,Maharashtra,Nashik,"Pandav Nagari, Nashik - MPCB",06-11-2025 21:00:00,19.9591346,73.7788008,CO,10,55,25
India,Maharashtra,Nashik,"Pandav Nagari, Nashik - MPCB",06-11-2025 21:00:00,19.9591346,73.7788008,OZONE,5,41,26
India,Maharashtra,Navi Mumbai,"Kopripada-Vashi, Navi Mumbai - MPCB",06-11-2025 21:00:00,19.090337,73.014232,PM2.5,34,60,47
India,Maharashtra,Navi Mumbai,"Kopripada-Vashi, Navi Mumbai - MPCB",06-11-2025 21:00:00,19.090337,73.014232,PM10,51,80,68
India,Maharashtra,Navi Mumbai,"Mahape, Navi Mumbai - MPCB",06-11-2025 21:00:00,19.1135051,73.008978,PM2.5,NA,NA,NA
India,Maharashtra,Navi Mumbai,"Mahape, Navi Mumbai - MPCB",06-11-2025 21:00:00,19.1135051,73.008978,SO2,NA,NA,NA
India,Maharashtra,Navi Mumbai,"Nerul, Navi Mumbai - MPCB",06-11-2025 21:00:00,19.008751,73.01662,PM10,77,121,99
India,Maharashtra,Navi Mumbai,"Nerul, Navi Mumbai - MPCB",06-11-2025 21:00:00,19.008751,73.01662,NO2,32,33,32
India,Maharashtra,Navi Mumbai,"Sanpada, Navi Mumbai - MPCB",06-11-2025 21:00:00,19.0575752,73.0151367,PM2.5,60,120,90
India,Maharashtra,Navi Mumbai,"Sanpada, Navi Mumbai - MPCB",06-11-2025 21:00:00,19.0575752,73.0151367,PM10,76,125,110
India,Maharashtra,Navi Mumbai,"Sanpada, Navi Mumbai - MPCB",06-11-2025 21:00:00,19.0575752,73.0151367,SO2,6,13,10
India,Maharashtra,Navi Mumbai,"Sector-2E Kalamboli, Navi Mumbai - MPCB",06-11-2025 21:00:00,19.02579,73.10297,PM10,111,156,134
India,Maharashtra,Navi Mumbai,"Sector-2E Kalamboli, Navi Mumbai - MPCB",06-11-2025 21:00:00,19.02579,73.10297,NO2,25,135,47
India,Maharashtra,Navi Mumbai,"Sector-2E Kalamboli, Navi Mumbai - MPCB",06-11-2025 21:00:00,19.02579,73.10297,CO,10,29,18
India,Maharashtra,Mumbai,"Sewri, Mumbai - BMC",06-11-2025 21:00:00,19.000084,72.85673,OZONE,98,98,98
India,Maharashtra,Mumbai,"Shivaji Nagar, Mumbai - BMC",06-11-2025 21:00:00,19.060498,72.923356,PM2.5,49,125,76
India,Maharashtra,Mumbai,"Siddharth Nagar-Worli, Mumbai - IITM",06-11-2025 21:00:00,19.000083,72.813993,PM2.5,32,171,57
India,Maharashtra,Mumbai,"Siddharth Nagar-Worli, Mumbai - IITM",06-11-2025 21:00:00,19.000083,72.813993,NO2,NA,NA,NA
India,Maharashtra,Mumbai,"Sion, Mumbai - MPCB",06-11-2025 21:00:00,19.047,72.8746,NO2,9,10,9
India,Maharashtra,Mumbai,"Sion, Mumbai - MPCB",06-11-2025 21:00:00,19.047,72.8746,OZONE,10,15,12
India,Maharashtra,Mumbai,"Vasai West, Mumbai - MPCB",06-11-2025 21:00:00,19.3832,72.8204,PM2.5,19,49,33
India,Maharashtra,Mumbai,"Vasai West, Mumbai - MPCB",06-11-2025 21:00:00,19.3832,72.8204,SO2,8,9,9
India,Maharashtra,Mumbai,"Vasai West, Mumbai - MPCB",06-11-2025 21:00:00,19.3832,72.8204,CO,46,48,46
India,Maharashtra,Pune,"Katraj Dairy, Pune - MPCB",06-11-2025 21:00:00,18.45445,73.854155,NH3,NA,NA,NA
India,Maharashtra,Pune,"Mhada Colony, Pune - IITM",06-11-2025 21:00:00,18.57304,73.927715,OZONE,14,84,50
India,Maharashtra,Pune,"Panchawati_Pashan, Pune - IITM",06-11-2025 21:00:00,18.536457,73.805454,NO2,10,29,14
India,Maharashtra,Pune,"Revenue Colony-Shivajinagar, Pune - IITM",06-11-2025 21:00:00,18.530085,73.849598,PM2.5,45,204,76
India,Maharashtra,Pune,"Revenue Colony-Shivajinagar, Pune - IITM",06-11-2025 21:00:00,18.530085,73.849598,NO2,9,69,34
India,Maharashtra,Pimpri-Chinchwad,"Savta Mali Nagar, Pimpri-Chinchwad - IITM",06-11-2025 21:00:00,18.614767,73.799516,OZONE,9,39,29
India,Maharashtra,Pimpri-Chinchwad,"Thergaon, Pimpri Chinchwad - MPCB",06-11-2025 21:00:00,18.616318,73.765797,PM2.5,3,130,81
India,Maharashtra,Pimpri-Chinchwad,"Thergaon, Pimpri Chinchwad - MPCB",06-11-2025 21:00:00,18.616318,73.765797,NO2,17,47,30
India,Maharashtra,Pimpri-Chinchwad,"Thergaon, Pimpri Chinchwad - MPCB",06-11-2025 21:00:00,18.616318,73.765797,NH3,4,5,5
India,Maharashtra,Pimpri-Chinchwad,"Thergaon, Pimpri Chinchwad - MPCB",06-11-2025 21:00:00,18.616318,73.765797,CO,16,57,30
India,Maharashtra,Pimpri-Chinchwad,"Thergaon, Pimpri Chinchwad - MPCB",06-11-2025 21:00:00,18.616318,73.765797,OZONE,2,41,30
India,Maharashtra,Navi Mumbai,"Sector-2E Kalamboli, Navi Mumbai - MPCB",06-11-2025 21:00:00,19.02579,73.10297,OZONE,1,84,47
India,Maharashtra,Parbhani,"Masoom Colony, Parbhani - MPCB",06-11-2025 21:00:00,19.265594,76.761463,PM2.5,19,66,50
India,Maharashtra,Parbhani,"Masoom Colony, Parbhani - MPCB",06-11-2025 21:00:00,19.265594,76.761463,SO2,3,28,14
India,Maharashtra,Pimpri-Chinchwad,"Gavalinagar, Pimpri Chinchwad - MPCB",06-11-2025 21:00:00,18.63673,73.82487,PM10,NA,NA,NA
India,Maharashtra,Nagpur,"Opp GPO Civil Lines, Nagpur - MPCB",06-11-2025 21:00:00,21.152875,79.0517531,PM2.5,49,93,66
India,Maharashtra,Nagpur,"Ram Nagar, Nagpur - MPCB",06-11-2025 21:00:00,21.143383,79.048912,OZONE,10,50,33
India,Maharashtra,Nanded,"Sneh Nagar, Nanded - MPCB",06-11-2025 21:00:00,19.173852,77.296291,NH3,3,5,4
India,Maharashtra,Nanded,"Sneh Nagar, Nanded - MPCB",06-11-2025 21:00:00,19.173852,77.296291,SO2,1,2,2
India,Maharashtra,Mumbai,"Vasai West, Mumbai - MPCB",06-11-2025 21:00:00,19.3832,72.8204,OZONE,10,24,19
India,Maharashtra,Mumbai,"Vile Parle West, Mumbai - MPCB",06-11-2025 21:00:00,19.10861,72.83622,SO2,11,59,42
India,Maharashtra,Mumbai,"Vile Parle West, Mumbai - MPCB",06-11-2025 21:00:00,19.10861,72.83622,OZONE,5,27,14
India,Maharashtra,Mumbai,"Worli, Mumbai - MPCB",06-11-2025 21:00:00,18.9936162,72.8128113,OZONE,20,20,20
India,Maharashtra,Nagpur,"Ambazari, Nagpur - MPCB",06-11-2025 21:00:00,21.121801,79.04952,CO,9,40,22
India,Odisha,Bileipada,"Tata Township, Bileipada - OSPCB",06-11-2025 21:00:00,22.06156703,85.47409613,OZONE,13,13,13
India,Odisha,Brajrajnagar,"GM Office, Brajrajnagar - OSPCB",06-11-2025 21:00:00,21.8004996,83.8396977,PM10,47,160,98
India,Odisha,Brajrajnagar,"GM Office, Brajrajnagar - OSPCB",06-11-2025 21:00:00,21.8004996,83.8396977,OZONE,25,29,27
India,Odisha,Byasanagar,"Ferro Chrome Colony, Byasanagar - OSPCB",06-11-2025 21:00:00,20.94185,86.1151,SO2,1,6,3
India,Odisha,Byasanagar,"Ferro Chrome Colony, Byasanagar - OSPCB",06-11-2025 21:00:00,20.94185,86.1151,OZONE,26,171,97
India,Odisha,Cuttack,"CDA Area, Cuttack - OSPCB",06-11-2025 21:00:00,,,NH3,3,6,4
India,Punjab,Ludhiana,"Punjab Agricultural University, Ludhiana - PPCB",06-11-2025 21:00:00,30.9028,75.8086,PM2.5,154,206,174
India,Punjab,Mandi Gobindgarh,"RIMT University, Mandi Gobindgarh - PPCB",06-11-2025 21:00:00,30.649961,76.331442,PM10,112,440,234
India,Punjab,Mandi Gobindgarh,"RIMT University, Mandi Gobindgarh - PPCB",06-11-2025 21:00:00,30.649961,76.331442,CO,8,100,69
India,Rajasthan,Ajmer,"Civil Lines,  Ajmer - RSPCB",06-11-2025 21:00:00,26.470859,74.646594,PM2.5,75,166,105
India,Rajasthan,Ajmer,"Civil Lines,  Ajmer - RSPCB",06-11-2025 21:00:00,26.470859,74.646594,PM10,108,147,125
India,Rajasthan,Ajmer,"Civil Lines,  Ajmer - RSPCB",06-11-2025 21:00:00,26.470859,74.646594,NH3,4,11,7
India,Meghalaya,Shillong,"JN Stadium, Shillong - Meghalaya PCB",06-11-2025 21:00:00,25.5803419,91.8942571,PM10,3,30,12
India,Meghalaya,Shillong,"JN Stadium, Shillong - Meghalaya PCB",06-11-2025 21:00:00,25.5803419,91.8942571,CO,8,59,14
India,Meghalaya,Shillong,"Lumpyngngad, Shillong - Meghalaya PCB",06-11-2025 21:00:00,25.5586,91.8985,SO2,5,6,5
India,Odisha,Angul,"Hakimapada, Angul - OSPCB",06-11-2025 21:00:00,20.832874,85.104082,SO2,9,48,19
India,Odisha,Angul,"Hakimapada, Angul - OSPCB",06-11-2025 21:00:00,20.832874,85.104082,CO,10,80,33
India,Odisha,Balasore,"Kalidaspur, Balasore - OSPCB",06-11-2025 21:00:00,21.51161,86.89088,NO2,8,94,23
India,Odisha,Keonjhar,"Jagamohanpur, Keonjhar - OSPCB",06-11-2025 21:00:00,21.6439,85.599355,CO,2,105,27
India,Odisha,Keonjhar,"Jagamohanpur, Keonjhar - OSPCB",06-11-2025 21:00:00,21.6439,85.599355,OZONE,16,28,20
India,Odisha,Nayagarh,"Dabuna, Nayagarh - OSPCB",06-11-2025 21:00:00,21.847279,85.416905,PM2.5,37,77,54
India,Odisha,Nayagarh,"Dabuna, Nayagarh - OSPCB",06-11-2025 21:00:00,21.847279,85.416905,SO2,7,16,9
India,Odisha,Rairangpur,"Divisional Forest Office, Rairangpur - OSPCB",06-11-2025 21:00:00,22.265816,86.174829,OZONE,17,35,27
India,Odisha,Rourkela,"Raghunathpali, Rourkela - OSPCB",06-11-2025 21:00:00,22.220833,84.809444,PM2.5,NA,NA,NA
India,Maharashtra,Thane,"Kasarvadavali, Thane - MPCB",06-11-2025 21:00:00,19.26777,72.97182,PM2.5,49,105,74
India,Maharashtra,Thane,"Kasarvadavali, Thane - MPCB",06-11-2025 21:00:00,19.26777,72.97182,PM10,75,174,114
India,Maharashtra,Thane,"Kasarvadavali, Thane - MPCB",06-11-2025 21:00:00,19.26777,72.97182,CO,16,40,28
India,Maharashtra,Thane,"Upvan Fort, Thane - MPCB",06-11-2025 21:00:00,19.222279,72.957979,SO2,2,5,4
India,Maharashtra,Ulhasnagar,"Sidhi Vinayak Nagar, Ulhasnagar - MPCB",06-11-2025 21:00:00,19.235581,73.159121,PM2.5,58,127,84
India,Maharashtra,Ulhasnagar,"Sidhi Vinayak Nagar, Ulhasnagar - MPCB",06-11-2025 21:00:00,19.235581,73.159121,OZONE,9,77,46
India,Punjab,Amritsar,"Golden Temple, Amritsar - PPCB",06-11-2025 21:00:00,31.62,74.876512,PM2.5,89,182,133
India,Punjab,Bathinda,"Hardev Nagar, Bathinda - PPCB",06-11-2025 21:00:00,30.233011,74.907758,PM2.5,31,323,144
India,Punjab,Jalandhar,"Civil Line, Jalandhar - PPCB",06-11-2025 21:00:00,31.321907,75.578914,PM2.5,72,301,173
India,Punjab,Jalandhar,"Civil Line, Jalandhar - PPCB",06-11-2025 21:00:00,31.321907,75.578914,NO2,33,42,37
India,Punjab,Khanna,"Kalal Majra, Khanna - PPCB",06-11-2025 21:00:00,,76.209694,PM2.5,83,263,125
India,Odisha,Rourkela,"Raghunathpali, Rourkela - OSPCB",06-11-2025 21:00:00,22.220833,84.809444,SO2,NA,NA,NA
India,Odisha,Talcher,"Talcher Coalfields,Talcher - OSPCB",06-11-2025 21:00:00,20.9360711,85.1707021,PM2.5,17,312,130
India,Odisha,Talcher,"Talcher Coalfields,Talcher - OSPCB",06-11-2025 21:00:00,20.9360711,85.1707021,PM10,74,195,134
India,Odisha,Talcher,"Talcher Coalfields,Talcher - OSPCB",06-11-2025 21:00:00,20.9360711,85.1707021,SO2,38,71,52
India,Odisha,Tensa,"Barsua Iron Ore Mines, Tensa - OSPCB",06-11-2025 21:00:00,21.869985,85.167016,PM10,56,101,83
India,Maharashtra,Pune,"Savitribai Phule Pune University, Pune - MPCB",06-11-2025 21:00:00,18.547056,73.826908,PM10,10,148,84
India,Maharashtra,Pune,"Transport Nagar-Nigdi, Pune - IITM",06-11-2025 21:00:00,18.664282,73.763966,PM2.5,NA,NA,NA
India,Maharashtra,Pune,"Transport Nagar-Nigdi, Pune - IITM",06-11-2025 21:00:00,18.664282,73.763966,NO2,NA,NA,NA
India,Maharashtra,Solapur,"Dnyaneshwar Nagar, Solapur - MPCB",06-11-2025 21:00:00,17.6336264,75.9132495,NO2,7,21,12
India,Odisha,Balasore,"Kalidaspur, Balasore - OSPCB",06-11-2025 21:00:00,21.51161,86.89088,SO2,5,11,7
India,Odisha,Balasore,"Kalidaspur, Balasore - OSPCB",06-11-2025 21:00:00,21.51161,86.89088,OZONE,1,86,51
India,Odisha,Baripada,"Meher Colony, Baripada - OSPCB",06-11-2025 21:00:00,21.941841,86.728318,OZONE,11,83,53
India,Rajasthan,Jaipur,"Sector-2 Murlipura, Jaipur - RSPCB",06-11-2025 21:00:00,26.960669,75.771817,OZONE,10,95,60
India,Rajasthan,Jaipur,"Shastri Nagar, Jaipur - RSPCB",06-11-2025 21:00:00,26.9502929,75.730943,PM10,101,401,177
India,Rajasthan,Jaipur,"Shastri Nagar, Jaipur - RSPCB",06-11-2025 21:00:00,26.9502929,75.730943,CO,42,102,81
India,Rajasthan,Jaisalmer,"Sadar Bazar, Jaisalmer - RSPCB",06-11-2025 21:00:00,26.912329,70.909168,PM10,77,334,117
India,Rajasthan,Jaisalmer,"Sadar Bazar, Jaisalmer - RSPCB",06-11-2025 21:00:00,26.912329,70.909168,OZONE,4,128,107
India,Rajasthan,Jalore,"Mudtra Sili, Jalore - RSPCB",06-11-2025 21:00:00,25.344694,72.626208,NO2,16,134,58
India,Rajasthan,Jalore,"Mudtra Sili, Jalore - RSPCB",06-11-2025 21:00:00,25.344694,72.626208,CO,20,98,50
India,Rajasthan,Jhalawar,"Rajlaxmi Nagar, Jhalawar - RSPCB",06-11-2025 21:00:00,24.588397,76.172782,PM10,61,181,114
India,Rajasthan,Chittorgarh,"Shastri Nagar, Chittorgarh - RSPCB",06-11-2025 21:00:00,24.892047,74.623527,CO,8,62,26
India,Rajasthan,Churu,"Subash Chowk, Churu - RSPCB",06-11-2025 21:00:00,28.296139,74.961696,PM2.5,29,368,202
India,Rajasthan,Churu,"Subash Chowk, Churu - RSPCB",06-11-2025 21:00:00,28.296139,74.961696,PM10,108,279,184
India,Rajasthan,Churu,"Subash Chowk, Churu - RSPCB",06-11-2025 21:00:00,28.296139,74.961696,NO2,8,55,21
India,Rajasthan,Dausa,"Khatikan Mohalla, Dausa - RSPCB",06-11-2025 21:00:00,26.895552,76.334753,PM10,83,275,139
India,Rajasthan,Dausa,"Khatikan Mohalla, Dausa - RSPCB",06-11-2025 21:00:00,26.895552,76.334753,NH3,4,15,8
India,Rajasthan,Dausa,"Khatikan Mohalla, Dausa - RSPCB",06-11-2025 21:00:00,26.895552,76.334753,SO2,4,12,7
India,Rajasthan,Dholpur,"Raja Ganj, Dholpur - RSPCB",06-11-2025 21:00:00,26.699557,77.898881,PM10,109,267,174
India,Rajasthan,Dholpur,"Raja Ganj, Dholpur - RSPCB",06-11-2025 21:00:00,26.699557,77.898881,NH3,6,10,7
India,Rajasthan,Jhalawar,"Rajlaxmi Nagar, Jhalawar - RSPCB",06-11-2025 21:00:00,24.588397,76.172782,OZONE,4,161,100
India,Rajasthan,Jodhpur,"Collectorate, Jodhpur - RSPCB",06-11-2025 21:00:00,26.268249,73.0193853,NO2,6,18,10
India,Rajasthan,Jodhpur,"Collectorate, Jodhpur - RSPCB",06-11-2025 21:00:00,26.268249,73.0193853,NH3,4,29,11
India,Rajasthan,Jodhpur,"Digari Kalan, Jodhpur - RSPCB",06-11-2025 21:00:00,26.29581,73.082283,PM10,86,322,150
India,Rajasthan,Jodhpur,"Digari Kalan, Jodhpur - RSPCB",06-11-2025 21:00:00,26.29581,73.082283,NH3,6,12,8
India,Rajasthan,Jodhpur,"Jhalamand, Jodhpur - RSPCB",06-11-2025 21:00:00,26.215415,73.070156,PM2.5,57,312,131
India,Rajasthan,Jodhpur,"Jhalamand, Jodhpur - RSPCB",06-11-2025 21:00:00,26.215415,73.070156,NO2,9,87,37
India,Rajasthan,Banswara,"Rati Talai, Banswara - RSPCB",06-11-2025 21:00:00,23.55519,74.44001,PM2.5,37,116,60
India,Rajasthan,Banswara,"Rati Talai, Banswara - RSPCB",06-11-2025 21:00:00,23.55519,74.44001,PM10,81,288,133
India,Rajasthan,Banswara,"Rati Talai, Banswara - RSPCB",06-11-2025 21:00:00,23.55519,74.44001,SO2,12,17,16
India,Rajasthan,Baran,"Bamboliya, Baran - RSPCB",06-11-2025 21:00:00,25.106006,76.469948,PM2.5,3,163,66
India,Rajasthan,Baran,"Bamboliya, Baran - RSPCB",06-11-2025 21:00:00,25.106006,76.469948,CO,16,38,26
India,Rajasthan,Barmer,"Railway Colony, Barmer - RSPCB",06-11-2025 21:00:00,25.747299,71.393989,PM2.5,28,500,131
India,Rajasthan,Barmer,"Railway Colony, Barmer - RSPCB",06-11-2025 21:00:00,25.747299,71.393989,NO2,7,123,35
India,Rajasthan,Jaipur,"Mansarovar Sector-12, Jaipur - RSPCB",06-11-2025 21:00:00,26.843698,75.766894,NH3,6,8,7
India,Rajasthan,Jaipur,"Police Commissionerate, Jaipur - RSPCB",06-11-2025 21:00:00,26.9164092,75.7994901,NO2,1,98,21
India,Rajasthan,Jaipur,"Police Commissionerate, Jaipur - RSPCB",06-11-2025 21:00:00,26.9164092,75.7994901,OZONE,19,64,53
India,Rajasthan,Jaipur,"Sector-2 Murlipura, Jaipur - RSPCB",06-11-2025 21:00:00,26.960669,75.771817,PM10,91,242,157
India,Rajasthan,Jaipur,"Sector-2 Murlipura, Jaipur - RSPCB",06-11-2025 21:00:00,26.960669,75.771817,NO2,27,117,59
India,Rajasthan,Bikaner,"MM Ground, Bikaner - RSPCB",06-11-2025 21:00:00,28.018792,73.292658,NH3,4,12,9
India,Rajasthan,Bundi,"New Colony, Bundi - RSPCB",06-11-2025 21:00:00,25.435774,75.644272,PM10,98,158,121
India,Rajasthan,Chittorgarh,"Shastri Nagar, Chittorgarh - RSPCB",06-11-2025 21:00:00,24.892047,74.623527,SO2,2,111,20
India,Rajasthan,Dungarpur,"Bhoiwada, Dungarpur - RSPCB",06-11-2025 21:00:00,23.837789,73.714926,PM10,74,153,114
India,Rajasthan,Hanumangarh,"Housing Board, Hanumangarh - RSPCB",06-11-2025 21:00:00,29.61075,74.283608,OZONE,19,72,51
India,Rajasthan,Jaipur,"Adarsh Nagar, Jaipur - RSPCB",06-11-2025 21:00:00,26.902909,75.836858,NO2,22,54,34
India,Rajasthan,Barmer,"Railway Colony, Barmer - RSPCB",06-11-2025 21:00:00,25.747299,71.393989,OZONE,4,153,93
India,Rajasthan,Bhilwara,"Pratap Nagar, Bhilwara - RSPCB",06-11-2025 21:00:00,25.339605,74.618883,PM10,86,374,152
India,Rajasthan,Alwar,"Moti Doongri, Alwar - RSPCB",06-11-2025 21:00:00,27.554793,76.611536,SO2,12,61,35
India,TamilNadu,Dindigul,"Mendonsa Colony, Dindigul - TNPCB",06-11-2025 21:00:00,10.358535,77.984321,NH3,NA,NA,NA
India,TamilNadu,Dindigul,"Mendonsa Colony, Dindigul - TNPCB",06-11-2025 21:00:00,10.358535,77.984321,CO,12,16,14
India,TamilNadu,Gummidipoondi,"Anthoni Pillai Nagar, Gummidipoondi - TNPCB",06-11-2025 21:00:00,13.4127,80.1081,PM2.5,58,335,145
India,TamilNadu,Hosur,"SIPCOT Phase-1, Hosur - TNPCB",06-11-2025 21:00:00,12.746998,77.813811,NO2,1,2,2
India,TamilNadu,Hosur,"SIPCOT Phase-1, Hosur - TNPCB",06-11-2025 21:00:00,12.746998,77.813811,NH3,1,1,1
India,TamilNadu,Kanchipuram,"Kilambi, Kanchipuram - TNPCB",06-11-2025 21:00:00,12.864618,79.659968,PM10,NA,NA,NA
India,TamilNadu,Kanchipuram,"Kilambi, Kanchipuram - TNPCB",06-11-2025 21:00:00,12.864618,79.659968,NO2,NA,NA,NA
India,TamilNadu,Kanchipuram,"Kilambi, Kanchipuram - TNPCB",06-11-2025 21:00:00,12.864618,79.659968,NH3,NA,NA,NA
India,TamilNadu,Madurai,"Uchapatti, Madurai - TNPCB",06-11-2025 21:00:00,9.865935,78.022669,NH3,4,4,4
India,TamilNadu,Chennai,"Manali, Chennai - CPCB",06-11-2025 21:00:00,13.164544,80.26285,SO2,5,16,13
India,TamilNadu,Chennai,"Manali, Chennai - CPCB",06-11-2025 21:00:00,13.164544,80.26285,CO,12,54,23
India,TamilNadu,Chennai,"Perungudi, Chennai - TNPCB",06-11-2025 21:00:00,12.9533,80.2357,NH3,3,6,4
India,TamilNadu,Chennai,"Royapuram, Chennai - TNPCB",06-11-2025 21:00:00,13.1036,80.2909,PM2.5,42,80,57
India,TamilNadu,Chennai,"Royapuram, Chennai - TNPCB",06-11-2025 21:00:00,13.1036,80.2909,NO2,14,67,39
India,TamilNadu,Chennai,"Royapuram, Chennai - TNPCB",06-11-2025 21:00:00,13.1036,80.2909,NH3,3,5,4
India,TamilNadu,Chennai,"Royapuram, Chennai - TNPCB",06-11-2025 21:00:00,13.1036,80.2909,SO2,2,6,4
India,TamilNadu,Chennai,"Velachery Res. Area, Chennai - CPCB",06-11-2025 21:00:00,13.0052189,80.2398125,SO2,14,16,15
India,Rajasthan,Pratapgarh,"Pragati Nagar, Pratapgarh - RSPCB",06-11-2025 21:00:00,24.041198,74.780702,NH3,2,10,6
India,Rajasthan,Pratapgarh,"Pragati Nagar, Pratapgarh - RSPCB",06-11-2025 21:00:00,24.041198,74.780702,OZONE,14,113,79
India,Rajasthan,Rajsamand,"Dhoinda, Rajsamand - RSPCB",06-11-2025 21:00:00,25.03636,73.883502,SO2,4,9,5
India,Rajasthan,Rajsamand,"Dhoinda, Rajsamand - RSPCB",06-11-2025 21:00:00,25.03636,73.883502,OZONE,5,76,55
India,Rajasthan,Sawai Madhopur,"Sahu Nagar, Sawai Madhopur - RSPCB",06-11-2025 21:00:00,26.031443,76.359327,OZONE,1,89,59
India,Rajasthan,Kota,"Dhanmandi, Kota - RSPCB",06-11-2025 21:00:00,25.16409,75.858137,CO,11,102,57
India,Rajasthan,Kota,"Nayapura, Kota - RSPCB",06-11-2025 21:00:00,25.196024,75.855668,NH3,6,23,9
India,Rajasthan,Nagaur,"Karni Colony, Nagaur - RSPCB",06-11-2025 21:00:00,27.213494,73.734444,PM2.5,42,315,119
India,Rajasthan,Pali,"Indira Colony Vistar, Pali - RSPCB",06-11-2025 21:00:00,25.771061,73.340227,PM10,68,414,141
India,Sikkim,Gangtok,"Zero Point GICI, Gangtok - SSPCB",06-11-2025 21:00:00,27.33853,88.614099,SO2,1,1,1
India,TamilNadu,Ariyalur,"Keelapalur, Ariyalur - TNPCB",06-11-2025 21:00:00,11.06825,79.07033,NH3,1,1,1
India,TamilNadu,Chengalpattu,"Crescent University, Chengalpattu - TNPCB",06-11-2025 21:00:00,12.8777316,80.0834807,SO2,NA,NA,NA
India,TamilNadu,Coimbatore,"PSG College of Arts and Science, Coimbatore - TNPCB",06-11-2025 21:00:00,11.0328,77.0349,PM2.5,39,115,72
India,TamilNadu,Coimbatore,"PSG College of Arts and Science, Coimbatore - TNPCB",06-11-2025 21:00:00,11.0328,77.0349,NH3,1,1,1
India,TamilNadu,Cuddalore,"Kudikadu, Cuddalore - TNPCB",06-11-2025 21:00:00,11.6829898,79.7532099,SO2,16,19,19
India,Rajasthan,Jodhpur,"Mandor, Jodhpur - RSPCB",06-11-2025 21:00:00,26.358805,73.047444,NO2,6,81,20
India,Rajasthan,Karauli,"Satyawati Vihar, Karauli - RSPCB",06-11-2025 21:00:00,26.506177,77.025989,OZONE,3,86,50
India,TamilNadu,Chennai,"Gandhi Nagar_Ennore, Chennai - TNPCB",06-11-2025 21:00:00,13.218341,80.32027,CO,8,9,8
India,Rajasthan,Udaipur,"Ashok Nagar, Udaipur - RSPCB",06-11-2025 21:00:00,24.5886166,73.6321397,NO2,6,42,22
India,Telangana,Hyderabad,"Central University, Hyderabad - TSPCB",06-11-2025 21:00:00,17.460103,78.334361,OZONE,8,26,13
India,Telangana,Hyderabad,"ECIL Kapra, Hyderabad - TSPCB",06-11-2025 21:00:00,17.470431,78.566959,PM2.5,38,43,39
India,Telangana,Hyderabad,"ECIL Kapra, Hyderabad - TSPCB",06-11-2025 21:00:00,17.470431,78.566959,CO,15,36,27
India,Telangana,Hyderabad,"ICRISAT Patancheru, Hyderabad - TSPCB",06-11-2025 21:00:00,17.5184,78.278777,PM2.5,15,168,87
India,Telangana,Hyderabad,"ICRISAT Patancheru, Hyderabad - TSPCB",06-11-2025 21:00:00,17.5184,78.278777,PM10,31,153,102
India,Telangana,Hyderabad,"ICRISAT Patancheru, Hyderabad - TSPCB",06-11-2025 21:00:00,17.5184,78.278777,CO,2,42,20
India,Telangana,Hyderabad,"IDA Pashamylaram, Hyderabad - TSPCB",06-11-2025 21:00:00,17.5316895,78.218939,PM2.5,38,186,132
India,Telangana,Hyderabad,"IDA Pashamylaram, Hyderabad - TSPCB",06-11-2025 21:00:00,17.5316895,78.218939,NH3,1,8,5
India,Telangana,Hyderabad,"IDA Pashamylaram, Hyderabad - TSPCB",06-11-2025 21:00:00,17.5316895,78.218939,OZONE,7,14,10
India,Telangana,Hyderabad,"IITH Kandi, Hyderabad - TSPCB",06-11-2025 21:00:00,17.585705,78.126199,SO2,10,11,11
India,Uttar_Pradesh,Agra,"Sector-3B Avas Vikas Colony, Agra - UPPCB",06-11-2025 21:00:00,27.19412,77.96237,PM10,108,500,152
India,Uttar_Pradesh,Agra,"Sector-3B Avas Vikas Colony, Agra - UPPCB",06-11-2025 21:00:00,27.19412,77.96237,OZONE,3,21,6
India,Uttar_Pradesh,Agra,"Shahjahan Garden, Agra - UPPCB",06-11-2025 21:00:00,27.169338,78.03582,SO2,17,29,22
India,Uttar_Pradesh,Agra,"Shahjahan Garden, Agra - UPPCB",06-11-2025 21:00:00,27.169338,78.03582,OZONE,1,34,23
India,Uttar_Pradesh,Agra,"Shastripuram, Agra - UPPCB",06-11-2025 21:00:00,27.19862,77.92066,NH3,3,3,3
India,Uttar_Pradesh,Agra,"Shastripuram, Agra - UPPCB",06-11-2025 21:00:00,27.19862,77.92066,SO2,35,52,44
India,Uttar_Pradesh,Agra,"Shastripuram, Agra - UPPCB",06-11-2025 21:00:00,27.19862,77.92066,CO,16,28,18
India,Uttar_Pradesh,Agra,"Shastripuram, Agra - UPPCB",06-11-2025 21:00:00,27.19862,77.92066,OZONE,7,8,8
India,Uttar_Pradesh,Baghpat,"Sardar Patel Inter College, Baghpat - UPPCB",06-11-2025 21:00:00,28.964949,77.278761,OZONE,11,89,67
India,TamilNadu,Vellore,"Vasanthapuram, Vellore - TNPCB",06-11-2025 21:00:00,12.909494,79.131861,NO2,NA,NA,NA
India,TamilNadu,Vellore,"Vasanthapuram, Vellore - TNPCB",06-11-2025 21:00:00,12.909494,79.131861,SO2,21,22,21
India,TamilNadu,Virudhunagar,"Collectorate Office, Virudhunagar - TNPCB",06-11-2025 21:00:00,9.559382,77.948828,PM10,37,69,54
India,TamilNadu,Virudhunagar,"Collectorate Office, Virudhunagar - TNPCB",06-11-2025 21:00:00,9.559382,77.948828,SO2,18,20,19
India,TamilNadu,Virudhunagar,"Collectorate Office, Virudhunagar - TNPCB",06-11-2025 21:00:00,9.559382,77.948828,CO,20,22,21
India,Telangana,Hyderabad,"Bollaram Industrial Area, Hyderabad - TSPCB",06-11-2025 21:00:00,17.540891,78.358528,PM2.5,20,106,57
India,Telangana,Hyderabad,"Bollaram Industrial Area, Hyderabad - TSPCB",06-11-2025 21:00:00,17.540891,78.358528,OZONE,53,61,59
India,Telangana,Hyderabad,"Central University, Hyderabad - TSPCB",06-11-2025 21:00:00,17.460103,78.334361,NH3,1,7,3
India,TamilNadu,Nagapattinam,"Velippalayam, Nagapattinam - TNPCB",06-11-2025 21:00:00,10.798548,79.838212,SO2,3,9,6
India,TamilNadu,Nagapattinam,"Velippalayam, Nagapattinam - TNPCB",06-11-2025 21:00:00,10.798548,79.838212,OZONE,NA,NA,NA
India,TamilNadu,Namakkal,"Ponnusamy Nagar, Namakkal - TNPCB",06-11-2025 21:00:00,11.273992,78.163545,PM10,13,60,32
India,TamilNadu,Namakkal,"Ponnusamy Nagar, Namakkal - TNPCB",06-11-2025 21:00:00,11.273992,78.163545,OZONE,8,18,11
India,TamilNadu,Ooty,"Bombay Castel, Ooty - TNPCB",06-11-2025 21:00:00,11.4068288,76.7138973,PM10,12,82,38
India,TamilNadu,Ooty,"Bombay Castel, Ooty - TNPCB",06-11-2025 21:00:00,11.4068288,76.7138973,NO2,3,5,4
India,TamilNadu,Palkalaiperur,"Bharathidasan University, Palkalaiperur - TNPCB",06-11-2025 21:00:00,10.681158,78.741746,PM10,13,42,27
India,TamilNadu,Thanjavur,"Parisutham Nagar, Thanjavur - TNPCB",06-11-2025 21:00:00,10.7654824,79.1389968,PM2.5,10,47,28
India,TamilNadu,Thanjavur,"Parisutham Nagar, Thanjavur - TNPCB",06-11-2025 21:00:00,10.7654824,79.1389968,NH3,1,1,1
India,TamilNadu,Tiruchirappalli,"St Joseph College, Tiruchirappalli - TNPCB",06-11-2025 21:00:00,10.830158,78.691849,SO2,NA,NA,NA
India,TamilNadu,Tirunelveli,"Municipal Corporation Office, Tirunelveli - TNPCB",06-11-2025 21:00:00,8.728442,77.6962,PM2.5,18,33,26
India,TamilNadu,Tirunelveli,"Municipal Corporation Office, Tirunelveli - TNPCB",06-11-2025 21:00:00,8.728442,77.6962,NO2,4,12,7
India,TamilNadu,Tirunelveli,"Municipal Corporation Office, Tirunelveli - TNPCB",06-11-2025 21:00:00,8.728442,77.6962,SO2,17,30,20
India,TamilNadu,Tirunelveli,"Municipal Corporation Office, Tirunelveli - TNPCB",06-11-2025 21:00:00,8.728442,77.6962,OZONE,6,7,6
India,Telangana,Hyderabad,"Kokapet, Hyderabad - TSPCB",06-11-2025 21:00:00,17.393559,78.339194,PM10,81,119,96
India,Telangana,Hyderabad,"Kokapet, Hyderabad - TSPCB",06-11-2025 21:00:00,17.393559,78.339194,CO,16,32,30
India,Telangana,Hyderabad,"Kompally Municipal Office, Hyderabad - TSPCB",06-11-2025 21:00:00,17.544899,78.486949,CO,18,22,20
India,Telangana,Hyderabad,"Nacharam_TSIIC IALA, Hyderabad - TSPCB",06-11-2025 21:00:00,17.429398,78.569354,PM10,72,118,94
India,Telangana,Hyderabad,"Nacharam_TSIIC IALA, Hyderabad - TSPCB",06-11-2025 21:00:00,17.429398,78.569354,NO2,10,20,15
India,TamilNadu,Perundurai,"SIPCOT Industrial Park, Perundurai - TNPCB",06-11-2025 21:00:00,11.258242,77.552761,PM2.5,7,82,29
India,TamilNadu,Perundurai,"SIPCOT Industrial Park, Perundurai - TNPCB",06-11-2025 21:00:00,11.258242,77.552761,SO2,11,12,12
India,TamilNadu,Pudukottai,"SIPCOT Nathampannai, Pudukottai - TNPCB",06-11-2025 21:00:00,10.423417,78.784889,PM10,26,105,62
India,TamilNadu,Pudukottai,"SIPCOT Nathampannai, Pudukottai - TNPCB",06-11-2025 21:00:00,10.423417,78.784889,SO2,12,13,13
India,Telangana,Hyderabad,"New Malakpet, Hyderabad - TSPCB",06-11-2025 21:00:00,17.37206,78.50864,OZONE,15,25,19
India,Telangana,Hyderabad,"Sanathnagar, Hyderabad - TSPCB",06-11-2025 21:00:00,17.4559458,78.4332152,PM2.5,33,160,88
India,Telangana,Hyderabad,"Somajiguda, Hyderabad - TSPCB",06-11-2025 21:00:00,17.417094,78.457437,SO2,6,16,12
India,Uttar_Pradesh,Agra,"Manoharpur, Agra - UPPCB",06-11-2025 21:00:00,27.23711,78.01936,SO2,33,71,57
India,Uttar_Pradesh,Agra,"Sanjay Palace, Agra - UPPCB",06-11-2025 21:00:00,27.19865833,78.00598056,NO2,5,18,9
India,Uttar_Pradesh,Gorakhpur,"Madan Mohan Malaviya University of Technology, Gorakhpur - UPPCB",06-11-2025 21:00:00,26.730136,83.433859,PM10,7,98,50
India,Uttar_Pradesh,Gorakhpur,"Madan Mohan Malaviya University of Technology, Gorakhpur - UPPCB",06-11-2025 21:00:00,26.730136,83.433859,OZONE,1,49,5
India,Uttar_Pradesh,Greater Noida,"Knowledge Park - III, Greater Noida - UPPCB",06-11-2025 21:00:00,28.47272,77.482,PM2.5,92,375,250
India,Uttar_Pradesh,Greater Noida,"Knowledge Park - III, Greater Noida - UPPCB",06-11-2025 21:00:00,28.47272,77.482,PM10,120,256,163
India,Uttar_Pradesh,Greater Noida,"Knowledge Park - III, Greater Noida - UPPCB",06-11-2025 21:00:00,28.47272,77.482,NO2,28,110,52
India,Uttar_Pradesh,Greater Noida,"Knowledge Park - III, Greater Noida - UPPCB",06-11-2025 21:00:00,28.47272,77.482,CO,38,120,72
India,Uttar_Pradesh,Greater Noida,"Knowledge Park - V, Greater Noida - UPPCB",06-11-2025 21:00:00,28.557054,77.453663,PM2.5,79,355,221
India,Uttar_Pradesh,Greater Noida,"Knowledge Park - V, Greater Noida - UPPCB",06-11-2025 21:00:00,28.557054,77.453663,NH3,1,2,1
India,Uttar_Pradesh,Hapur,"Anand Vihar, Hapur - UPPCB",06-11-2025 21:00:00,28.725645,77.749675,CO,1,48,10
India,Uttar_Pradesh,Jhansi,"Shivaji Nagar, Jhansi - UPPCB",06-11-2025 21:00:00,25.4547,78.6039,PM2.5,21,140,58
India,Uttar_Pradesh,Jhansi,"Shivaji Nagar, Jhansi - UPPCB",06-11-2025 21:00:00,25.4547,78.6039,NO2,6,6,6
India,Uttar_Pradesh,Kanpur,"FTI Kidwai Nagar, Kanpur - UPPCB",06-11-2025 21:00:00,26.428282,80.327067,OZONE,21,22,22
India,Uttar_Pradesh,Kanpur,"NSI Kalyanpur, Kanpur - UPPCB",06-11-2025 21:00:00,26.509954,80.249612,NO2,22,22,22
India,Uttar_Pradesh,Kanpur,"NSI Kalyanpur, Kanpur - UPPCB",06-11-2025 21:00:00,26.509954,80.249612,OZONE,17,21,18
India,Uttar_Pradesh,Kanpur,"Nehru Nagar, Kanpur - UPPCB",06-11-2025 21:00:00,26.4703136,80.3229863,PM2.5,44,183,85
India,Uttar_Pradesh,Kanpur,"Nehru Nagar, Kanpur - UPPCB",06-11-2025 21:00:00,26.4703136,80.3229863,PM10,39,118,71
India,Uttar_Pradesh,Kanpur,"Nehru Nagar, Kanpur - UPPCB",06-11-2025 21:00:00,26.4703136,80.3229863,CO,31,69,33
India,Uttar_Pradesh,Khurja,"Kalindi Kunj, Khurja - UPPCB",06-11-2025 21:00:00,28.2348927,77.8683002,PM2.5,81,327,219
India,Uttar_Pradesh,Khurja,"Kalindi Kunj, Khurja - UPPCB",06-11-2025 21:00:00,28.2348927,77.8683002,SO2,14,15,15
India,Uttar_Pradesh,Bareilly,"Civil Lines, Bareilly - UPPCB",06-11-2025 21:00:00,28.359581,79.414455,NO2,NA,NA,NA
India,Uttar_Pradesh,Bareilly,"Civil Lines, Bareilly - UPPCB",06-11-2025 21:00:00,28.359581,79.414455,CO,47,80,52
India,Uttar_Pradesh,Bareilly,"Civil Lines, Bareilly - UPPCB",06-11-2025 21:00:00,28.359581,79.414455,OZONE,14,24,16
India,Uttar_Pradesh,Bareilly,"Rajendra Nagar, Bareilly - UPPCB",06-11-2025 21:00:00,28.38910936,79.42963708,SO2,32,33,32
India,Uttar_Pradesh,Bulandshahr,"Yamunapuram, Bulandshahr - UPPCB",06-11-2025 21:00:00,28.406963,77.849831,SO2,16,53,24
India,Uttar_Pradesh,Firozabad,"Vibhab Nagar, Firozabad - UPPCB",06-11-2025 21:00:00,27.1594,78.3953,OZONE,3,55,24
India,Uttar_Pradesh,Ghaziabad,"Indirapuram, Ghaziabad - UPPCB",06-11-2025 21:00:00,28.646233,77.358075,PM2.5,106,348,240
India,Uttar_Pradesh,Moradabad,"Jigar Colony, Moradabad - UPPCB",06-11-2025 21:00:00,28.856664,78.772638,OZONE,16,17,16
India,Uttar_Pradesh,Moradabad,"Transport Nagar, Moradabad - UPPCB",06-11-2025 21:00:00,28.802625,78.753728,NH3,5,6,5
India,Uttar_Pradesh,Moradabad,"Transport Nagar, Moradabad - UPPCB",06-11-2025 21:00:00,28.802625,78.753728,CO,2,11,6
India,Uttar_Pradesh,Muzaffarnagar,"New Mandi, Muzaffarnagar - UPPCB",06-11-2025 21:00:00,29.4723508,77.7194031,PM2.5,71,301,154
India,Uttar_Pradesh,Muzaffarnagar,"New Mandi, Muzaffarnagar - UPPCB",06-11-2025 21:00:00,29.4723508,77.7194031,PM10,102,160,118
India,Uttar_Pradesh,Muzaffarnagar,"New Mandi, Muzaffarnagar - UPPCB",06-11-2025 21:00:00,29.4723508,77.7194031,NH3,5,7,6
India,Uttar_Pradesh,Ghaziabad,"Indirapuram, Ghaziabad - UPPCB",06-11-2025 21:00:00,28.646233,77.358075,NH3,8,15,11
India,Uttar_Pradesh,Ghaziabad,"Indirapuram, Ghaziabad - UPPCB",06-11-2025 21:00:00,28.646233,77.358075,CO,28,80,48
India,Uttar_Pradesh,Ghaziabad,"Sanjay Nagar, Ghaziabad - UPPCB",06-11-2025 21:00:00,28.685382,77.453839,PM2.5,73,348,225
India,Uttar_Pradesh,Ghaziabad,"Sanjay Nagar, Ghaziabad - UPPCB",06-11-2025 21:00:00,28.685382,77.453839,PM10,113,236,159
India,Uttar_Pradesh,Ghaziabad,"Sanjay Nagar, Ghaziabad - UPPCB",06-11-2025 21:00:00,28.685382,77.453839,NH3,7,14,11
India,Uttar_Pradesh,Ghaziabad,"Vasundhara, Ghaziabad - UPPCB",06-11-2025 21:00:00,28.6603346,77.3572563,OZONE,4,136,80
India,Uttar_Pradesh,Moradabad,"Buddhi Vihar, Moradabad - UPPCB",06-11-2025 21:00:00,28.83526,78.7446,NH3,5,5,5
India,Uttar_Pradesh,Moradabad,"Eco Herbal Park, Moradabad - UPPCB",06-11-2025 21:00:00,28.840739,78.697531,PM2.5,59,90,70
India,Uttar_Pradesh,Moradabad,"Eco Herbal Park, Moradabad - UPPCB",06-11-2025 21:00:00,28.840739,78.697531,NO2,11,22,16
India,Uttar_Pradesh,Moradabad,"Eco Herbal Park, Moradabad - UPPCB",06-11-2025 21:00:00,28.840739,78.697531,OZONE,21,116,79
India,Uttar_Pradesh,Moradabad,"Employment Office, Moradabad - UPPCB",06-11-2025 21:00:00,28.88528,78.7388,PM2.5,55,111,79
India,Uttar_Pradesh,Moradabad,"Employment Office, Moradabad - UPPCB",06-11-2025 21:00:00,28.88528,78.7388,OZONE,16,70,47
India,Uttar_Pradesh,Lucknow,"Lalbagh, Lucknow - CPCB",06-11-2025 21:00:00,26.8458805,80.9365541,NH3,14,21,18
India,Uttar_Pradesh,Lucknow,"Talkatora District Industries Center, Lucknow - CPCB",06-11-2025 21:00:00,26.83399722,80.8917361,CO,12,65,26
India,Uttar_Pradesh,Meerut,"Ganga Nagar, Meerut - UPPCB",06-11-2025 21:00:00,28.999264,77.7590354,SO2,12,24,17
India,Uttar_Pradesh,Lucknow,"B R Ambedkar University, Lucknow - UPPCB",06-11-2025 21:00:00,26.766433,80.927299,PM10,53,112,93
India,Uttar_Pradesh,Lucknow,"B R Ambedkar University, Lucknow - UPPCB",06-11-2025 21:00:00,26.766433,80.927299,SO2,23,25,24
India,Uttar_Pradesh,Meerut,"Pallavpuram Phase 2, Meerut - UPPCB",06-11-2025 21:00:00,29.06351,77.709723,PM10,110,276,165
India,West_Bengal,Howrah,"Padmapukur, Howrah - WBPCB",06-11-2025 21:00:00,22.5687319,88.2797276,NH3,3,11,7
India,West_Bengal,Kolkata,"Ballygunge, Kolkata - WBPCB",06-11-2025 21:00:00,22.5367507,88.3638022,PM10,82,191,127
India,West_Bengal,Kolkata,"Ballygunge, Kolkata - WBPCB",06-11-2025 21:00:00,22.5367507,88.3638022,NH3,7,13,9
India,West_Bengal,Kolkata,"Ballygunge, Kolkata - WBPCB",06-11-2025 21:00:00,22.5367507,88.3638022,OZONE,8,30,19
India,West_Bengal,Kolkata,"Bidhannagar, Kolkata - WBPCB",06-11-2025 21:00:00,22.58157048,88.41002457,NO2,12,22,15
India,West_Bengal,Kolkata,"Fort William, Kolkata - WBPCB",06-11-2025 21:00:00,22.55664,88.342674,PM2.5,85,299,179
India,West_Bengal,Kolkata,"Fort William, Kolkata - WBPCB",06-11-2025 21:00:00,22.55664,88.342674,PM10,88,171,129
India,West_Bengal,Kolkata,"Fort William, Kolkata - WBPCB",06-11-2025 21:00:00,22.55664,88.342674,NO2,13,26,18
India,West_Bengal,Kolkata,"Fort William, Kolkata - WBPCB",06-11-2025 21:00:00,22.55664,88.342674,CO,18,100,42
India,West_Bengal,Kolkata,"Jadavpur, Kolkata - WBPCB",06-11-2025 21:00:00,22.49929,88.36917,NO2,9,56,22
India,West_Bengal,Howrah,"Belur Math, Howrah - WBPCB",06-11-2025 21:00:00,22.629801,88.352017,NH3,7,13,10
India,West_Bengal,Howrah,"Belur Math, Howrah - WBPCB",06-11-2025 21:00:00,22.629801,88.352017,CO,22,90,41
India,West_Bengal,Howrah,"Botanical Garden, Howrah - WBPCB",06-11-2025 21:00:00,22.554954,88.292568,SO2,8,9,9
India,West_Bengal,Howrah,"Botanical Garden, Howrah - WBPCB",06-11-2025 21:00:00,22.554954,88.292568,OZONE,21,46,36
India,West_Bengal,Howrah,"Dasnagar, Howrah - WBPCB",06-11-2025 21:00:00,22.6025571,88.3105664,PM2.5,59,212,117
India,West_Bengal,Howrah,"Dasnagar, Howrah - WBPCB",06-11-2025 21:00:00,22.6025571,88.3105664,NO2,10,58,31
India,West_Bengal,Howrah,"Dasnagar, Howrah - WBPCB",06-11-2025 21:00:00,22.6025571,88.3105664,OZONE,4,97,64
India,West_Bengal,Howrah,"Ghusuri, Howrah - WBPCB",06-11-2025 21:00:00,22.611968,88.347422,PM2.5,76,308,162
India,West_Bengal,Howrah,"Ghusuri, Howrah - WBPCB",06-11-2025 21:00:00,22.611968,88.347422,PM10,89,193,130
India,West_Bengal,Howrah,"Ghusuri, Howrah - WBPCB",06-11-2025 21:00:00,22.611968,88.347422,CO,6,65,32
India,Uttarakhand,Dehradun,"Doon University, Dehradun - UKPCB",06-11-2025 21:00:00,30.269444,78.044167,NO2,1,5,2
India,Uttarakhand,Dehradun,"Doon University, Dehradun - UKPCB",06-11-2025 21:00:00,30.269444,78.044167,CO,2,36,12
India,Uttarakhand,Kashipur,"Govt. Girls Inter College, Kashipur - UKPCB",06-11-2025 21:00:00,29.2124114,78.9611753,PM10,75,152,106
India,Uttarakhand,Kashipur,"Govt. Girls Inter College, Kashipur - UKPCB",06-11-2025 21:00:00,29.2124114,78.9611753,NH3,2,16,5
India,Uttarakhand,Kashipur,"Govt. Girls Inter College, Kashipur - UKPCB",06-11-2025 21:00:00,29.2124114,78.9611753,CO,32,38,35
India,Uttarakhand,Rishikesh,"Shivaji Nagar, Rishikesh - UKPCB",06-11-2025 21:00:00,30.075911,78.2859547,CO,18,36,26
India,West_Bengal,Asansol,"Asansol Court Area, Asansol - WBPCB",06-11-2025 21:00:00,23.685297,86.945968,PM2.5,65,430,215
India,West_Bengal,Asansol,"Asansol Court Area, Asansol - WBPCB",06-11-2025 21:00:00,23.685297,86.945968,PM10,67,184,137
India,Uttar_Pradesh,Noida,"Sector-116, Noida - UPPCB",06-11-2025 21:00:00,28.56923,77.393848,SO2,12,20,15
India,Uttar_Pradesh,Prayagraj,"Jhunsi, Prayagraj - UPPCB",06-11-2025 21:00:00,25.425602,81.917152,OZONE,15,33,26
India,Uttar_Pradesh,Prayagraj,"Motilal Nehru NIT, Prayagraj - UPPCB",06-11-2025 21:00:00,25.494,81.863,NO2,12,12,12
India,Uttar_Pradesh,Prayagraj,"Motilal Nehru NIT, Prayagraj - UPPCB",06-11-2025 21:00:00,25.494,81.863,NH3,8,8,8
India,Uttar_Pradesh,Prayagraj,"Nagar Nigam, Prayagraj - UPPCB",06-11-2025 21:00:00,,,NH3,NA,NA,NA
India,Uttar_Pradesh,Varanasi,"Ardhali Bazar, Varanasi - UPPCB",06-11-2025 21:00:00,25.3505986,82.9083074,PM2.5,30,178,81
India,Uttar_Pradesh,Varanasi,"Ardhali Bazar, Varanasi - UPPCB",06-11-2025 21:00:00,25.3505986,82.9083074,PM10,41,161,102
India,West_Bengal,Durgapur,"Mahishkapur Road_B-Zone, Durgapur - WBPCB",06-11-2025 21:00:00,23.567923,87.306843,CO,8,50,21
India,West_Bengal,Durgapur,"PCBL Residential Complex, Durgapur - WBPCB",06-11-2025 21:00:00,23.508764,87.35444,SO2,3,8,4
India,West_Bengal,Durgapur,"Womens College_City Center, Durgapur - WBPCB (Formerly known as Sidhu Kanhu Indoor Stadium)",06-11-2025 21:00:00,23.549395,87.300496,CO,29,62,39
India,West_Bengal,Haldia,"Priyambada Housing Estate, Haldia - WBPCB",06-11-2025 21:00:00,22.06047,88.109737,NH3,5,7,6
India,West_Bengal,Haldia,"Priyambada Housing Estate, Haldia - WBPCB",06-11-2025 21:00:00,22.06047,88.109737,SO2,13,22,16
India,West_Bengal,Haldia,"Priyambada Housing Estate, Haldia - WBPCB",06-11-2025 21:00:00,22.06047,88.109737,CO,34,68,45
India,Uttar_Pradesh,Varanasi,"Bhelupur, Varanasi - UPPCB",06-11-2025 21:00:00,25.301778,82.996789,NO2,8,8,8
India,Uttar_Pradesh,Varanasi,"IESD Banaras Hindu University, Varanasi - UPPCB",06-11-2025 21:00:00,25.262326,82.995408,CO,9,22,14
India,Uttar_Pradesh,Varanasi,"IESD Banaras Hindu University, Varanasi - UPPCB",06-11-2025 21:00:00,25.262326,82.995408,OZONE,12,67,20
India,Uttar_Pradesh,Varanasi,"Maldahiya, Varanasi - UPPCB",06-11-2025 21:00:00,25.32393,82.99687,CO,13,34,20
India,Uttar_Pradesh,Vrindavan,"Omex Eternity, Vrindavan - UPPCB",06-11-2025 21:00:00,27.571409,77.655757,NO2,12,12,12
India,Uttar_Pradesh,Vrindavan,"Omex Eternity, Vrindavan - UPPCB",06-11-2025 21:00:00,27.571409,77.655757,NH3,1,2,2
India,West_Bengal,Kolkata,"Rabindra Bharati University, Kolkata - WBPCB",06-11-2025 21:00:00,22.627847,88.380669,NH3,2,3,2
India,West_Bengal,Kolkata,"Rabindra Sarobar, Kolkata - WBPCB",06-11-2025 21:00:00,22.51106,88.35142,NO2,38,164,80
India,West_Bengal,Kolkata,"Rabindra Sarobar, Kolkata - WBPCB",06-11-2025 21:00:00,22.51106,88.35142,SO2,NA,NA,NA
India,West_Bengal,Kolkata,"Rabindra Sarobar, Kolkata - WBPCB",06-11-2025 21:00:00,22.51106,88.35142,CO,25,84,37
India,West_Bengal,Kolkata,"Victoria, Kolkata - WBPCB",06-11-2025 21:00:00,22.5448082,88.3403691,NO2,12,25,18
India,Uttar_Pradesh,Noida,"Sector - 125, Noida - UPPCB",06-11-2025 21:00:00,28.5447608,77.3231257,PM10,129,402,239
India,Uttar_Pradesh,Noida,"Sector - 125, Noida - UPPCB",06-11-2025 21:00:00,28.5447608,77.3231257,OZONE,16,152,95
India,Uttar_Pradesh,Noida,"Sector - 62, Noida - IMD",06-11-2025 21:00:00,28.6245479,77.3577104,NO2,20,49,29
India,Uttar_Pradesh,Noida,"Sector-116, Noida - UPPCB",06-11-2025 21:00:00,28.56923,77.393848,PM10,125,336,184
India,West_Bengal,Asansol,"Trivenidevi Bhalotia College, Asansol - WBPCB",06-11-2025 21:00:00,23.616515,87.119133,NH3,3,4,4
India,West_Bengal,Barrackpore,"SVSPA Campus, Barrackpore - WBPCB",06-11-2025 21:00:00,22.7605581,88.3617589,OZONE,3,35,20
India,West_Bengal,Siliguri,"Ward-32 Bapupara, Siliguri - WBPCB",06-11-2025 21:00:00,26.6879226,88.4152495,NH3,11,11,11
India,West_Bengal,Siliguri,"Ward-32 Bapupara, Siliguri - WBPCB",06-11-2025 21:00:00,26.6879226,88.4152495,CO,32,96,52
India,Bihar,Gaya,"Kareemganj, Gaya - BSPCB",06-11-2025 21:00:00,24.792403,84.992416,NH3,4,6,5
India,Bihar,Gaya,"Kareemganj, Gaya - BSPCB",06-11-2025 21:00:00,24.792403,84.992416,CO,38,44,41
India,Bihar,Gaya,"SFTI Kusdihra, Gaya - BSPCB",06-11-2025 21:00:00,24.762518,84.982348,PM2.5,17,46,31
India,Bihar,Gaya,"SFTI Kusdihra, Gaya - BSPCB",06-11-2025 21:00:00,24.762518,84.982348,SO2,8,9,8
India,Bihar,Gaya,"SFTI Kusdihra, Gaya - BSPCB",06-11-2025 21:00:00,24.762518,84.982348,CO,20,42,34
India,Bihar,Gaya,"SFTI Kusdihra, Gaya - BSPCB",06-11-2025 21:00:00,24.762518,84.982348,OZONE,12,37,28
India,Bihar,Hajipur,"Industrial Area, Hajipur - BSPCB",06-11-2025 21:00:00,25.697189,85.2459,PM2.5,43,224,139
India,Bihar,Hajipur,"Industrial Area, Hajipur - BSPCB",06-11-2025 21:00:00,25.697189,85.2459,SO2,1,5,4
India,Bihar,Katihar,"Mirchaibari, Katihar - BSPCB",06-11-2025 21:00:00,25.560083,87.553265,OZONE,4,10,7
India,Andhra_Pradesh,Anantapur,"Gulzarpet, Anantapur - APPCB",06-11-2025 21:00:00,14.675886,77.593027,NH3,5,6,5
India,Andhra_Pradesh,Chittoor,"Gangineni Cheruvu, Chittoor - APPCB",06-11-2025 21:00:00,13.20488,79.097889,NH3,5,6,6
India,Andhra_Pradesh,Chittoor,"Gangineni Cheruvu, Chittoor - APPCB",06-11-2025 21:00:00,13.20488,79.097889,SO2,7,34,16
India,Andhra_Pradesh,Kadapa,"Yerramukkapalli, Kadapa - APPCB",06-11-2025 21:00:00,14.465052,78.824187,SO2,11,20,17
India,Andhra_Pradesh,Rajamahendravaram,"Anand Kala Kshetram, Rajamahendravaram - APPCB",06-11-2025 21:00:00,16.9872867,81.7363176,SO2,3,12,6
India,Andhra_Pradesh,Rajamahendravaram,"Anand Kala Kshetram, Rajamahendravaram - APPCB",06-11-2025 21:00:00,16.9872867,81.7363176,OZONE,4,27,11
India,Assam,Sivasagar,"Girls College, Sivasagar - PCBA",06-11-2025 21:00:00,26.987634,94.636574,SO2,7,11,10
India,Bihar,Araria,"Kharahiya Basti, Araria - BSPCB",06-11-2025 21:00:00,26.146529,87.454184,PM10,69,152,103
India,Bihar,Araria,"Kharahiya Basti, Araria - BSPCB",06-11-2025 21:00:00,26.146529,87.454184,NO2,4,53,25
India,Bihar,Arrah,"New DM Office, Arrah - BSPCB",06-11-2025 21:00:00,25.5626095,84.663264,PM10,31,50,38
India,Bihar,Aurangabad,"Gurdeo Nagar, Aurangabad - BSPCB",06-11-2025 21:00:00,24.75746,84.366208,PM2.5,57,143,92
India,Bihar,Aurangabad,"Gurdeo Nagar, Aurangabad - BSPCB",06-11-2025 21:00:00,24.75746,84.366208,PM10,46,98,72
India,Bihar,Buxar,"Charitra Van, Buxar - BSPCB",06-11-2025 21:00:00,25.56752,83.966379,CO,19,29,26
India,Bihar,Chhapra,"Darshan Nagar, Chhapra - BSPCB",06-11-2025 21:00:00,25.7808257,84.7446768,OZONE,13,28,23
India,Bihar,Gaya,"Collectorate, Gaya - BSPCB",06-11-2025 21:00:00,24.7955,84.9994,NO2,9,9,9
India,Bihar,Gaya,"Collectorate, Gaya - BSPCB",06-11-2025 21:00:00,24.7955,84.9994,CO,40,65,54
India,Bihar,Gaya,"Kareemganj, Gaya - BSPCB",06-11-2025 21:00:00,24.792403,84.992416,PM10,157,338,208
India,Andhra_Pradesh,Vijayawada,"HB Colony, Vijayawada - APPCB",06-11-2025 21:00:00,16.536107,80.594233,PM2.5,40,138,60
India,Andhra_Pradesh,Vijayawada,"HB Colony, Vijayawada - APPCB",06-11-2025 21:00:00,16.536107,80.594233,NO2,14,22,17
India,Andhra_Pradesh,Vijayawada,"HB Colony, Vijayawada - APPCB",06-11-2025 21:00:00,16.536107,80.594233,NH3,4,5,4
India,Andhra_Pradesh,Vijayawada,"Rajiv Gandhi Park, Vijayawada - APPCB",06-11-2025 21:00:00,16.509717,80.612222,OZONE,12,42,33
India,Andhra_Pradesh,Visakhapatnam,"GVM Corporation, Visakhapatnam - APPCB",06-11-2025 21:00:00,17.72,83.3,PM2.5,75,162,112
India,Bihar,Begusarai,"Lohiyanagar, Begusarai - BSPCB",06-11-2025 21:00:00,25.42742023,86.13886079,CO,46,58,56
India,Bihar,Bettiah,"Kamalnath Nagar, Bettiah - BSPCB",06-11-2025 21:00:00,26.80365,84.51954,PM10,32,163,88
India,Bihar,Bettiah,"Kamalnath Nagar, Bettiah - BSPCB",06-11-2025 21:00:00,26.80365,84.51954,NO2,5,11,8
India,Bihar,Bhagalpur,"DM Office_Kachari Chowk, Bhagalpur - BSPCB",06-11-2025 21:00:00,25.251013,86.989001,NO2,NA,NA,NA
India,Assam,Nagaon,"Christianpatty, Nagaon - PCBA",06-11-2025 21:00:00,26.349082,92.68449,NH3,3,4,4
India,Assam,Silchar,"Tarapur, Silchar - PCBA",06-11-2025 21:00:00,24.82827,92.79525,PM10,45,57,49
India,Assam,Silchar,"Tarapur, Silchar - PCBA",06-11-2025 21:00:00,24.82827,92.79525,NO2,15,15,15
India,Andhra_Pradesh,Amaravati,"Secretariat, Amaravati - APPCB",06-11-2025 21:00:00,16.5150833,80.5181667,PM10,64,172,104
India,Bihar,Bihar Sharif,"D M Colony, Bihar Sharif - BSPCB",06-11-2025 21:00:00,25.204762,85.51496,SO2,10,10,10
India,Assam,Guwahati,"IITG, Guwahati - PCBA",06-11-2025 21:00:00,26.2028636,91.70046436,CO,3,14,8
India,Chhattisgarh,Tumidih,"OP Jindal Industrial Park, Tumidih - CECB",06-11-2025 21:00:00,22.06631475,83.33820077,OZONE,3,121,73
India,Delhi,Delhi,"Alipur, Delhi - DPCC",06-11-2025 21:00:00,28.815329,77.15301,PM10,131,464,296
India,Delhi,Delhi,"Alipur, Delhi - DPCC",06-11-2025 21:00:00,28.815329,77.15301,SO2,25,33,27
India,Delhi,Delhi,"Alipur, Delhi - DPCC",06-11-2025 21:00:00,28.815329,77.15301,CO,37,104,46
India,Delhi,Delhi,"Alipur, Delhi - DPCC",06-11-2025 21:00:00,28.815329,77.15301,OZONE,5,59,44
India,Delhi,Delhi,"Anand Vihar, Delhi - DPCC",06-11-2025 21:00:00,28.647622,77.315809,NO2,46,163,91
India,Delhi,Delhi,"Anand Vihar, Delhi - DPCC",06-11-2025 21:00:00,28.647622,77.315809,NH3,9,17,12
India,Delhi,Delhi,"Anand Vihar, Delhi - DPCC",06-11-2025 21:00:00,28.647622,77.315809,SO2,21,66,37
India,Delhi,Delhi,"Ashok Vihar, Delhi - DPCC",06-11-2025 21:00:00,28.695381,77.181665,PM10,153,441,269
India,Chandigarh,Chandigarh,"Sector-53, Chandigarh - CPCC",06-11-2025 21:00:00,30.719859,76.738637,PM10,NA,NA,NA
India,Chhattisgarh,Bhilai,"32Bungalows, Bhilai - CECB",06-11-2025 21:00:00,21.194815,81.31477,SO2,5,14,7
India,Chhattisgarh,Bhilai,"Hathkhoj, Bhilai - CECB",06-11-2025 21:00:00,21.224231,81.40835,NH3,3,4,4
India,Chhattisgarh,Bilaspur,"Mangala, Bilaspur - NTPC",06-11-2025 21:00:00,22.08815,82.13737,CO,38,52,46
India,Chhattisgarh,Chhal,"Nawapara SECL Colony, Chhal - CECB",06-11-2025 21:00:00,22.118125,83.140608,NH3,6,6,6
India,Bihar,Muzaffarpur,"Buddha Colony, Muzaffarpur - BSPCB",06-11-2025 21:00:00,26.11442,85.39813,NH3,5,9,8
India,Bihar,Muzaffarpur,"MIT-Daudpur Kothi, Muzaffarpur - BSPCB",06-11-2025 21:00:00,26.1403345,85.3650192,PM10,52,90,72
India,Bihar,Muzaffarpur,"MIT-Daudpur Kothi, Muzaffarpur - BSPCB",06-11-2025 21:00:00,26.1403345,85.3650192,NO2,7,9,8
India,Bihar,Muzaffarpur,"MIT-Daudpur Kothi, Muzaffarpur - BSPCB",06-11-2025 21:00:00,26.1403345,85.3650192,NH3,1,1,1
India,Bihar,Muzaffarpur,"Muzaffarpur Collectorate, Muzaffarpur - BSPCB",06-11-2025 21:00:00,26.1209,85.3647,NO2,6,12,9
India,Bihar,Patna,"DRM Office Danapur, Patna - BSPCB",06-11-2025 21:00:00,25.586562,85.043586,PM10,106,178,139
India,Bihar,Siwan,"Chitragupta Nagar, Siwan - BSPCB",06-11-2025 21:00:00,26.2271665,84.3570427,NO2,1,2,1
India,Bihar,Siwan,"Chitragupta Nagar, Siwan - BSPCB",06-11-2025 21:00:00,26.2271665,84.3570427,CO,1,182,1
India,Chandigarh,Chandigarh,"Sector 22, Chandigarh - CPCC",06-11-2025 21:00:00,30.735567,76.775714,PM10,65,151,104
India,Chandigarh,Chandigarh,"Sector 22, Chandigarh - CPCC",06-11-2025 21:00:00,30.735567,76.775714,NH3,7,10,8
India,Chandigarh,Chandigarh,"Sector-25, Chandigarh - CPCC",06-11-2025 21:00:00,30.751462,76.762879,NO2,17,53,32
India,Chandigarh,Chandigarh,"Sector-25, Chandigarh - CPCC",06-11-2025 21:00:00,30.751462,76.762879,OZONE,4,49,31
India,Chhattisgarh,Korba,"Urja Nagar, Korba - CECB",06-11-2025 21:00:00,22.348441,82.549611,OZONE,35,36,35
India,Chhattisgarh,Kunjemura,"OP Jindal School, Kunjemura - CECB",06-11-2025 21:00:00,22.12665,83.483212,NH3,2,2,2
India,Chhattisgarh,Milupara,"Govt. Higher Secondary School, Milupara - CECB",06-11-2025 21:00:00,22.1910172,83.5197009,PM10,31,126,66
India,Chhattisgarh,Milupara,"Govt. Higher Secondary School, Milupara - CECB",06-11-2025 21:00:00,22.1910172,83.5197009,NH3,1,2,2
India,Chhattisgarh,Milupara,"Govt. Higher Secondary School, Milupara - CECB",06-11-2025 21:00:00,22.1910172,83.5197009,SO2,14,16,15
India,Chhattisgarh,Raipur,"AIIMS, Raipur - CECB",06-11-2025 21:00:00,21.258815,81.578979,CO,6,52,32
India,Chhattisgarh,Raipur,"AIIMS, Raipur - CECB",06-11-2025 21:00:00,21.258815,81.578979,OZONE,5,19,11
India,Chhattisgarh,Raipur,"Bhatagaon New ISBT, Raipur - CECB",06-11-2025 21:00:00,21.219665,81.630094,NO2,5,37,14
India,Chhattisgarh,Raipur,"Bhatagaon New ISBT, Raipur - CECB",06-11-2025 21:00:00,21.219665,81.630094,SO2,6,11,7
India,Chhattisgarh,Tumidih,"OP Jindal Industrial Park, Tumidih - CECB",06-11-2025 21:00:00,22.06631475,83.33820077,NO2,25,49,35
India,Bihar,Purnia,"Mariam Nagar, Purnia - BSPCB",06-11-2025 21:00:00,25.366336,87.117468,NH3,3,3,3
India,Bihar,Saharsa,"Police Line, Saharsa - BSPCB",06-11-2025 21:00:00,25.892357,86.590325,PM10,26,96,64
India,Bihar,Samastipur,"DM Office_Kasipur, Samastipur - BSPCB",06-11-2025 21:00:00,25.859655,85.77944,PM10,NA,NA,NA
India,Bihar,Samastipur,"DM Office_Kasipur, Samastipur - BSPCB",06-11-2025 21:00:00,25.859655,85.77944,SO2,NA,NA,NA
India,Bihar,Motihari,"Gandak Colony, Motihari - BSPCB",06-11-2025 21:00:00,26.63086,84.90051,NO2,7,10,8
India,Bihar,Munger,"Town Hall, Munger - BSPCB",06-11-2025 21:00:00,25.376776,86.471523,NH3,5,8,6
India,Bihar,Munger,"Town Hall, Munger - BSPCB",06-11-2025 21:00:00,25.376776,86.471523,OZONE,11,23,16
India,Bihar,Patna,"Muradpur, Patna - BSPCB",06-11-2025 21:00:00,25.619651,85.147382,CO,35,74,49
India,Bihar,Patna,"Rajbansi Nagar, Patna - BSPCB",06-11-2025 21:00:00,25.599486,85.113666,PM2.5,94,242,155
India,Bihar,Patna,"Rajbansi Nagar, Patna - BSPCB",06-11-2025 21:00:00,25.599486,85.113666,SO2,5,9,7
India,Delhi,Delhi,"Chandni Chowk, Delhi - IITM",06-11-2025 21:00:00,28.656756,77.227234,NH3,6,8,7
India,Delhi,Delhi,"Chandni Chowk, Delhi - IITM",06-11-2025 21:00:00,28.656756,77.227234,SO2,8,45,26
India,Delhi,Delhi,"Chandni Chowk, Delhi - IITM",06-11-2025 21:00:00,28.656756,77.227234,OZONE,9,87,57
India,Delhi,Delhi,"DTU, Delhi - CPCB",06-11-2025 21:00:00,28.7500499,77.1112615,NO2,35,61,52
India,Delhi,Delhi,"Dr. Karni Singh Shooting Range, Delhi - DPCC",06-11-2025 21:00:00,28.498571,77.26484,PM2.5,110,500,323
India,Delhi,Delhi,"Dwarka-Sector 8, Delhi - DPCC ",06-11-2025 21:00:00,28.5710274,77.0719006,PM10,148,500,306
India,Delhi,Delhi,"Dwarka-Sector 8, Delhi - DPCC ",06-11-2025 21:00:00,28.5710274,77.0719006,NH3,7,15,8
India,Delhi,Delhi,"Dwarka-Sector 8, Delhi - DPCC ",06-11-2025 21:00:00,28.5710274,77.0719006,OZONE,3,131,77
India,Delhi,Delhi,"IGI Airport (T3), Delhi - IMD",06-11-2025 21:00:00,28.5627763,77.1180053,PM2.5,77,482,301
India,Delhi,Delhi,"Ashok Vihar, Delhi - DPCC",06-11-2025 21:00:00,28.695381,77.181665,CO,46,101,72
India,Delhi,Delhi,"Aya Nagar, Delhi - IMD",06-11-2025 21:00:00,28.4706914,77.1099364,CO,2,56,8
India,Delhi,Delhi,"Bawana, Delhi - DPCC",06-11-2025 21:00:00,28.7762,77.051074,NH3,5,8,6
India,Delhi,Delhi,"Bawana, Delhi - DPCC",06-11-2025 21:00:00,28.7762,77.051074,CO,18,88,30
India,Delhi,Delhi,"Bawana, Delhi - DPCC",06-11-2025 21:00:00,28.7762,77.051074,OZONE,7,129,85
India,Delhi,Delhi,"Burari Crossing, Delhi - IMD",06-11-2025 21:00:00,28.7256504,77.2011573,PM2.5,117,500,332
India,Delhi,Delhi,"Burari Crossing, Delhi - IMD",06-11-2025 21:00:00,28.7256504,77.2011573,OZONE,24,115,76
India,Delhi,Delhi,"CRRI Mathura Road, Delhi - IMD",06-11-2025 21:00:00,28.5512005,77.2735737,NO2,41,71,56
India,Delhi,Delhi,"CRRI Mathura Road, Delhi - IMD",06-11-2025 21:00:00,28.5512005,77.2735737,CO,9,84,31
India,Delhi,Delhi,"Lodhi Road, Delhi - IITM",06-11-2025 21:00:00,28.588333,77.221667,PM2.5,55,377,228
India,Delhi,Delhi,"Lodhi Road, Delhi - IMD",06-11-2025 21:00:00,28.5918245,77.2273074,NO2,13,55,27
India,Delhi,Delhi,"Major Dhyan Chand National Stadium, Delhi - DPCC",06-11-2025 21:00:00,28.611281,77.237738,PM10,133,429,232
India,Delhi,Delhi,"Mandir Marg, Delhi - DPCC",06-11-2025 21:00:00,28.636429,77.201067,NO2,17,46,27
India,Delhi,Delhi,"Mandir Marg, Delhi - DPCC",06-11-2025 21:00:00,28.636429,77.201067,NH3,10,23,16
India,Delhi,Delhi,"Mandir Marg, Delhi - DPCC",06-11-2025 21:00:00,28.636429,77.201067,CO,18,98,55
India,Delhi,Delhi,"Mundka, Delhi - DPCC",06-11-2025 21:00:00,28.684678,77.076574,PM2.5,85,500,352
India,Delhi,Delhi,"Mundka, Delhi - DPCC",06-11-2025 21:00:00,28.684678,77.076574,PM10,126,500,322
India,Delhi,Delhi,"Shadipur, Delhi - CPCB",06-11-2025 21:00:00,28.6514781,77.1473105,SO2,5,18,10
India,Delhi,Delhi,"Shadipur, Delhi - CPCB",06-11-2025 21:00:00,28.6514781,77.1473105,CO,10,100,37
India,Delhi,Delhi,"Sonia Vihar, Delhi - DPCC",06-11-2025 21:00:00,28.710508,77.249485,OZONE,8,100,62
India,Delhi,Delhi,"Sri Aurobindo Marg, Delhi - DPCC",06-11-2025 21:00:00,28.531346,77.190156,CO,27,96,35
India,Delhi,Delhi,"Vivek Vihar, Delhi - DPCC",06-11-2025 21:00:00,28.672342,77.31526,PM2.5,98,468,305
India,Delhi,Delhi,"NSIT Dwarka, Delhi - CPCB",06-11-2025 21:00:00,28.60909,77.0325413,NO2,55,100,71
India,Delhi,Delhi,"Najafgarh, Delhi - DPCC",06-11-2025 21:00:00,28.570173,76.933762,PM10,111,430,263
India,Delhi,Delhi,"Najafgarh, Delhi - DPCC",06-11-2025 21:00:00,28.570173,76.933762,CO,26,103,31
India,Delhi,Delhi,"Narela, Delhi - DPCC",06-11-2025 21:00:00,28.822836,77.101981,SO2,11,29,18
India,Delhi,Delhi,"Nehru Nagar, Delhi - DPCC",06-11-2025 21:00:00,28.56789,77.250515,NH3,5,11,7
India,Delhi,Delhi,"R K Puram, Delhi - DPCC",06-11-2025 21:00:00,28.563262,77.186937,NH3,4,7,5
India,Delhi,Delhi,"R K Puram, Delhi - DPCC",06-11-2025 21:00:00,28.563262,77.186937,SO2,12,49,30
India,Delhi,Delhi,"R K Puram, Delhi - DPCC",06-11-2025 21:00:00,28.563262,77.186937,OZONE,7,149,91
India,Delhi,Delhi,"Rohini, Delhi - DPCC",06-11-2025 21:00:00,28.732528,77.11992,OZONE,17,178,126
India,Delhi,Delhi,"Shadipur, Delhi - CPCB",06-11-2025 21:00:00,28.6514781,77.1473105,PM2.5,110,363,203
India,Delhi,Delhi,"IGI Airport (T3), Delhi - IMD",06-11-2025 21:00:00,28.5627763,77.1180053,NO2,68,223,116
India,Delhi,Delhi,"IHBAS, Dilshad Garden, Delhi - CPCB",06-11-2025 21:00:00,28.6811736,77.3025234,PM10,143,301,223
India,Delhi,Delhi,"Jawaharlal Nehru Stadium, Delhi - DPCC",06-11-2025 21:00:00,28.58028,77.233829,NO2,22,139,63
India,Delhi,Delhi,"Jawaharlal Nehru Stadium, Delhi - DPCC",06-11-2025 21:00:00,28.58028,77.233829,SO2,14,25,20
India,Delhi,Delhi,"Vivek Vihar, Delhi - DPCC",06-11-2025 21:00:00,28.672342,77.31526,SO2,12,20,17
India,Gujarat,Ahmedabad,"Chandkheda, Ahmedabad - IITM",06-11-2025 21:00:00,23.107969,72.574648,PM2.5,32,350,131
India,Gujarat,Ahmedabad,"Chandkheda, Ahmedabad - IITM",06-11-2025 21:00:00,23.107969,72.574648,PM10,108,419,174
India,Gujarat,Ahmedabad,"Gyaspur, Ahmedabad - IITM",06-11-2025 21:00:00,22.977134,72.553024,NO2,25,118,60
India,Delhi,Delhi,"Okhla Phase-2, Delhi - DPCC",06-11-2025 21:00:00,28.530785,77.271255,NO2,63,166,100
India,Delhi,Delhi,"Okhla Phase-2, Delhi - DPCC",06-11-2025 21:00:00,28.530785,77.271255,CO,36,101,54
India,Haryana,Kurukshetra,"Sector-7, Kurukshetra - HSPCB",06-11-2025 21:00:00,29.966942,76.875879,CO,14,57,26
India,Haryana,Mandikhera,"General Hospital, Mandikhera - HSPCB",06-11-2025 21:00:00,27.9002,76.9938,NO2,20,23,21
India,Haryana,Mandikhera,"General Hospital, Mandikhera - HSPCB",06-11-2025 21:00:00,27.9002,76.9938,CO,61,92,65
India,Haryana,Manesar,"Sector-2 IMT, Manesar - HSPCB",06-11-2025 21:00:00,28.360699,76.93609,NO2,16,54,34
India,Haryana,Manesar,"Sector-2 IMT, Manesar - HSPCB",06-11-2025 21:00:00,28.360699,76.93609,NH3,2,16,13
India,Haryana,Manesar,"Sector-2 IMT, Manesar - HSPCB",06-11-2025 21:00:00,28.360699,76.93609,SO2,5,38,13
India,Haryana,Narnaul,"Shastri Nagar, Narnaul - HSPCB",06-11-2025 21:00:00,28.060249,76.113115,PM10,153,244,197
India,Haryana,Narnaul,"Shastri Nagar, Narnaul - HSPCB",06-11-2025 21:00:00,28.060249,76.113115,NO2,15,47,28
India,Haryana,Palwal,"Shyam Nagar, Palwal - HSPCB",06-11-2025 21:00:00,28.1485564,77.3320667,NO2,23,24,24
India,Haryana,Hisar,"Urban Estate-II, Hisar - HSPCB",06-11-2025 21:00:00,29.14056,75.744941,NH3,4,5,5
India,Haryana,Hisar,"Urban Estate-II, Hisar - HSPCB",06-11-2025 21:00:00,29.14056,75.744941,CO,55,108,62
India,Haryana,Jind,"Police Lines, Jind - HSPCB",06-11-2025 21:00:00,29.307814,76.337619,SO2,27,30,28
India,Haryana,Kaithal,"Rishi Nagar, Kaithal - HSPCB",06-11-2025 21:00:00,29.8006,76.4155,PM2.5,48,317,181
India,Haryana,Kaithal,"Rishi Nagar, Kaithal - HSPCB",06-11-2025 21:00:00,29.8006,76.4155,PM10,59,239,142
India,Haryana,Kaithal,"Rishi Nagar, Kaithal - HSPCB",06-11-2025 21:00:00,29.8006,76.4155,SO2,29,36,32
India,Haryana,Karnal,"Sector-12, Karnal - HSPCB",06-11-2025 21:00:00,29.6953,77.0027,NO2,9,11,10
India,Haryana,Karnal,"Sector-12, Karnal - HSPCB",06-11-2025 21:00:00,29.6953,77.0027,OZONE,26,27,26
India,Gujarat,Gandhinagar,"Sector-10, Gandhinagar - GPCB",06-11-2025 21:00:00,23.221714,72.654328,PM10,77,268,154
India,Gujarat,Gandhinagar,"Sector-10, Gandhinagar - GPCB",06-11-2025 21:00:00,23.221714,72.654328,NH3,2,2,2
India,Gujarat,Surat,"Science Center, Surat - SMC",06-11-2025 21:00:00,21.170046,72.795405,CO,33,39,34
India,Gujarat,Vapi,"Phase-1 GIDC, Vapi - GPCB",06-11-2025 21:00:00,20.362421,72.918013,NH3,5,5,5
India,Gujarat,Vatva,"Phase-4 GIDC, Vatva - GPCB",06-11-2025 21:00:00,22.969611,72.6435,SO2,12,60,24
India,Gujarat,Vatva,"Phase-4 GIDC, Vatva - GPCB",06-11-2025 21:00:00,22.969611,72.6435,OZONE,18,57,38
India,Haryana,Palwal,"Shyam Nagar, Palwal - HSPCB",06-11-2025 21:00:00,28.1485564,77.3320667,OZONE,23,24,24
India,Haryana,Panchkula,"Sector-6, Panchkula - HSPCB ",06-11-2025 21:00:00,30.7057778,76.8531805555555,PM2.5,233,315,297
India,Haryana,Panipat,"Sector-18, Panipat - HSPCB",06-11-2025 21:00:00,29.432304,76.972765,PM2.5,32,412,221
India,Haryana,Panipat,"Sector-18, Panipat - HSPCB",06-11-2025 21:00:00,29.432304,76.972765,NO2,31,32,31
India,Haryana,Panipat,"Sector-18, Panipat - HSPCB",06-11-2025 21:00:00,29.432304,76.972765,CO,8,26,22
India,Haryana,Dharuhera,"Municipal Corporation Office, Dharuhera -  HSPCB",06-11-2025 21:00:00,28.2068,76.7997,PM2.5,34,450,256
India,Haryana,Dharuhera,"Municipal Corporation Office, Dharuhera -  HSPCB",06-11-2025 21:00:00,28.2068,76.7997,PM10,42,455,246
India,Haryana,Dharuhera,"Municipal Corporation Office, Dharuhera -  HSPCB",06-11-2025 21:00:00,28.2068,76.7997,SO2,4,6,5
India,Haryana,Faridabad,"New Industrial Town, Faridabad - HSPCB",06-11-2025 21:00:00,28.39072,77.30059,NO2,23,27,25
India,Haryana,Faridabad,"New Industrial Town, Faridabad - HSPCB",06-11-2025 21:00:00,28.39072,77.30059,SO2,8,8,8
India,Gujarat,Ankleshwar,"GIDC, Ankleshwar - GPCB",06-11-2025 21:00:00,21.613267,73.010555,OZONE,34,66,50
India,Gujarat,Gandhinagar,"GIFT City, Gandhinagar - IITM",06-11-2025 21:00:00,23.163798,72.677768,NH3,2,17,8
India,Gujarat,Gandhinagar,"GIFT City, Gandhinagar - IITM",06-11-2025 21:00:00,23.163798,72.677768,SO2,2,18,8
India,Gujarat,Gandhinagar,"IIPHG Lekawada, Gandhinagar - IITM",06-11-2025 21:00:00,23.243639,72.68994,NO2,7,16,11
India,Gujarat,Gandhinagar,"IIPHG Lekawada, Gandhinagar - IITM",06-11-2025 21:00:00,23.243639,72.68994,SO2,2,6,4
India,Haryana,Ambala,"Patti Mehar, Ambala - HSPCB",06-11-2025 21:00:00,30.379589,76.778328,SO2,31,32,31
India,Haryana,Bahadurgarh,"Arya Nagar, Bahadurgarh - HSPCB",06-11-2025 21:00:00,28.6701,76.9254,NO2,12,14,13
India,Haryana,Ballabgarh,"Nathu Colony, Ballabgarh - HSPCB",06-11-2025 21:00:00,28.3419248,77.319699,PM10,112,135,119
India,Haryana,Fatehabad,"Huda Sector, Fatehabad - HSPCB",06-11-2025 21:00:00,29.503664,75.467934,OZONE,12,23,16
India,Haryana,Gurugram,"Sector-51, Gurugram - HSPCB",06-11-2025 21:00:00,28.4227,77.0667,PM2.5,147,421,318
India,Haryana,Gurugram,"Sector-51, Gurugram - HSPCB",06-11-2025 21:00:00,28.4227,77.0667,SO2,2,9,6
India,Haryana,Gurugram,"Sector-51, Gurugram - HSPCB",06-11-2025 21:00:00,28.4227,77.0667,CO,28,96,49
India,Gujarat,Ahmedabad,"Maninagar, Ahmedabad - GPCB",06-11-2025 21:00:00,23.002657,72.591912,CO,24,65,45
India,Gujarat,Ahmedabad,"Raikhad, Ahmedabad - IITM",06-11-2025 21:00:00,23.020509,72.579261,SO2,10,65,20
India,Gujarat,Ahmedabad,"Rakhial, Ahmedabad - IITM",06-11-2025 21:00:00,23.016834,72.625775,PM10,92,194,130
India,Gujarat,Ahmedabad,"Rakhial, Ahmedabad - IITM",06-11-2025 21:00:00,23.016834,72.625775,NH3,2,20,8
India,Karnataka,Bengaluru,"Silk Board, Bengaluru - KSPCB",06-11-2025 21:00:00,12.917348,77.622813,NH3,2,2,2
India,Karnataka,Bengaluru,"Silk Board, Bengaluru - KSPCB",06-11-2025 21:00:00,12.917348,77.622813,CO,19,48,31
India,Karnataka,Chamarajanagar,"Urban, Chamarajanagar - KSPCB",06-11-2025 21:00:00,11.55358,76.55521,SO2,2,5,3
India,Karnataka,Davanagere,"Devaraj Urs Badavane, Davanagere - KSPCB",06-11-2025 21:00:00,14.4758,75.9052,NH3,1,3,2
India,Karnataka,Davanagere,"Devaraj Urs Badavane, Davanagere - KSPCB",06-11-2025 21:00:00,14.4758,75.9052,SO2,1,5,3
India,Karnataka,Davanagere,"Devaraj Urs Badavane, Davanagere - KSPCB",06-11-2025 21:00:00,14.4758,75.9052,CO,33,37,35
India,Karnataka,Davanagere,"Devaraj Urs Badavane, Davanagere - KSPCB",06-11-2025 21:00:00,14.4758,75.9052,OZONE,21,24,22
